[
   {
    "id": 4158449,
    "name": "Hernando County",
    "country": "US",
    "coord": {
      "lon": -82.458153,
      "lat": 28.541941
    }
  },
  {
    "id": 4174301,
    "name": "Sumter County",
    "country": "US",
    "coord": {
      "lon": -82.083138,
      "lat": 28.708599
    }
  },
  {
    "id": 4196508,
    "name": "Fulton County",
    "country": "US",
    "coord": {
      "lon": -84.449928,
      "lat": 33.766769
    }
  },
  {
    "id": 4191014,
    "name": "DeKalb County",
    "country": "US",
    "coord": {
      "lon": -84.233253,
      "lat": 33.750381
    }
  },
  {
    "id": 4255818,
    "name": "Clark County",
    "country": "US",
    "coord": {
      "lon": -85.761353,
      "lat": 38.483398
    }
  },
  {
    "id": 4310411,
    "name": "Sylvania",
    "country": "US",
    "coord": {
      "lon": -85.87413,
      "lat": 38.157009
    }
  },
  {
    "id": 4287837,
    "name": "Clark County",
    "country": "US",
    "coord": {
      "lon": -84.266602,
      "lat": 37.98341
    }
  },
  {
    "id": 4347820,
    "name": "City of Baltimore",
    "country": "US",
    "coord": {
      "lon": -76.61219,
      "lat": 39.290379
    }
  },
  {
    "id": 7198188,
    "name": "Cashell Estates",
    "country": "US",
    "coord": {
      "lon": -77.138702,
      "lat": 39.137199
    }
  },
  {
    "id": 4372589,
    "name": "Wakely Terrace",
    "country": "US",
    "coord": {
      "lon": -76.334961,
      "lat": 39.525661
    }
  },
  {
    "id": 4406835,
    "name": "Saint Charles County",
    "country": "US",
    "coord": {
      "lon": -90.733459,
      "lat": 38.76672
    }
  },
  {
    "id": 4407084,
    "name": "City of Saint Louis",
    "country": "US",
    "coord": {
      "lon": -90.197891,
      "lat": 38.62727
    }
  },
  {
    "id": 4422178,
    "name": "Coahoma County",
    "country": "US",
    "coord": {
      "lon": -90.567879,
      "lat": 34.217892
    }
  },
  {
    "id": 4431425,
    "name": "Jackson County",
    "country": "US",
    "coord": {
      "lon": -88.6278,
      "lat": 30.42325
    }
  },
  {
    "id": 4481511,
    "name": "Nash County",
    "country": "US",
    "coord": {
      "lon": -77.96637,
      "lat": 35.96682
    }
  },
  {
    "id": 4475520,
    "name": "Lee County",
    "country": "US",
    "coord": {
      "lon": -79.183083,
      "lat": 35.46682
    }
  },
  {
    "id": 4527624,
    "name": "Warren County",
    "country": "US",
    "coord": {
      "lon": -84.166603,
      "lat": 39.433392
    }
  },
  {
    "id": 4534444,
    "name": "Creek County",
    "country": "US",
    "coord": {
      "lon": -96.400291,
      "lat": 35.900082
    }
  },
  {
    "id": 4592843,
    "name": "Richland County",
    "country": "US",
    "coord": {
      "lon": -80.916481,
      "lat": 34.016819
    }
  },
  {
    "id": 4735729,
    "name": "Taylor County",
    "country": "US",
    "coord": {
      "lon": -99.833702,
      "lat": 32.300129
    }
  },
  {
    "id": 4697444,
    "name": "Hidalgo County",
    "country": "US",
    "coord": {
      "lon": -98.200287,
      "lat": 26.333679
    }
  },
  {
    "id": 4740157,
    "name": "Washington County",
    "country": "US",
    "coord": {
      "lon": -96.400238,
      "lat": 30.233549
    }
  },
  {
    "id": 4739690,
    "name": "Walker County",
    "country": "US",
    "coord": {
      "lon": -95.566887,
      "lat": 30.73353
    }
  },
  {
    "id": 4703071,
    "name": "Kerr County",
    "country": "US",
    "coord": {
      "lon": -99.300323,
      "lat": 30.050211
    }
  },
  {
    "id": 4744106,
    "name": "City of Alexandria",
    "country": "US",
    "coord": {
      "lon": -77.046921,
      "lat": 38.80484
    }
  },
  {
    "id": 4749005,
    "name": "City of Bristol",
    "country": "US",
    "coord": {
      "lon": -82.188469,
      "lat": 36.596489
    }
  },
  {
    "id": 4752046,
    "name": "City of Charlottesville",
    "country": "US",
    "coord": {
      "lon": -78.476677,
      "lat": 38.029308
    }
  },
  {
    "id": 4752215,
    "name": "City of Chesapeake",
    "country": "US",
    "coord": {
      "lon": -76.312157,
      "lat": 36.687649
    }
  },
  {
    "id": 4753684,
    "name": "City of Colonial Heights",
    "country": "US",
    "coord": {
      "lon": -77.410263,
      "lat": 37.244041
    }
  },
  {
    "id": 4755298,
    "name": "City of Danville",
    "country": "US",
    "coord": {
      "lon": -79.39502,
      "lat": 36.585972
    }
  },
  {
    "id": 4758109,
    "name": "City of Fairfax",
    "country": "US",
    "coord": {
      "lon": -77.306374,
      "lat": 38.846218
    }
  },
  {
    "id": 4760084,
    "name": "City of Fredericksburg",
    "country": "US",
    "coord": {
      "lon": -77.460541,
      "lat": 38.303181
    }
  },
  {
    "id": 4763237,
    "name": "City of Harrisonburg",
    "country": "US",
    "coord": {
      "lon": -78.868919,
      "lat": 38.44957
    }
  },
  {
    "id": 4764849,
    "name": "City of Hopewell",
    "country": "US",
    "coord": {
      "lon": -77.287201,
      "lat": 37.304321
    }
  },
  {
    "id": 4771099,
    "name": "City of Lynchburg",
    "country": "US",
    "coord": {
      "lon": -79.14225,
      "lat": 37.41375
    }
  },
  {
    "id": 4771426,
    "name": "City of Manassas",
    "country": "US",
    "coord": {
      "lon": -77.475273,
      "lat": 38.75095
    }
  },
  {
    "id": 4776037,
    "name": "City of Newport News",
    "country": "US",
    "coord": {
      "lon": -76.508011,
      "lat": 37.062649
    }
  },
  {
    "id": 4776242,
    "name": "City of Norfolk",
    "country": "US",
    "coord": {
      "lon": -76.261879,
      "lat": 36.891258
    }
  },
  {
    "id": 4778642,
    "name": "City of Petersburg",
    "country": "US",
    "coord": {
      "lon": -77.401932,
      "lat": 37.227928
    }
  },
  {
    "id": 4780019,
    "name": "City of Portsmouth",
    "country": "US",
    "coord": {
      "lon": -76.354668,
      "lat": 36.85487
    }
  },
  {
    "id": 4780851,
    "name": "City of Radford",
    "country": "US",
    "coord": {
      "lon": -80.576447,
      "lat": 37.13179
    }
  },
  {
    "id": 4781756,
    "name": "City of Richmond",
    "country": "US",
    "coord": {
      "lon": -77.460258,
      "lat": 37.553761
    }
  },
  {
    "id": 4782241,
    "name": "City of Roanoke",
    "country": "US",
    "coord": {
      "lon": -79.941429,
      "lat": 37.270969
    }
  },
  {
    "id": 4784205,
    "name": "City of Salem",
    "country": "US",
    "coord": {
      "lon": -80.054764,
      "lat": 37.293468
    }
  },
  {
    "id": 4788160,
    "name": "City of Suffolk",
    "country": "US",
    "coord": {
      "lon": -76.608009,
      "lat": 36.708481
    }
  },
  {
    "id": 4787467,
    "name": "City of Staunton",
    "country": "US",
    "coord": {
      "lon": -79.071701,
      "lat": 38.149578
    }
  },
  {
    "id": 4792534,
    "name": "City of Waynesboro",
    "country": "US",
    "coord": {
      "lon": -78.889473,
      "lat": 38.06847
    }
  },
  {
    "id": 4794134,
    "name": "City of Winchester",
    "country": "US",
    "coord": {
      "lon": -78.16333,
      "lat": 39.185661
    }
  },
  {
    "id": 5151606,
    "name": "Cuyahoga County",
    "country": "US",
    "coord": {
      "lon": -81.666519,
      "lat": 41.433392
    }
  },
  {
    "id": 4899519,
    "name": "Lee County",
    "country": "US",
    "coord": {
      "lon": -89.283432,
      "lat": 41.750591
    }
  },
  {
    "id": 4898722,
    "name": "Knox County",
    "country": "US",
    "coord": {
      "lon": -90.200119,
      "lat": 40.933369
    }
  },
  {
    "id": 5004681,
    "name": "Ottawa County",
    "country": "US",
    "coord": {
      "lon": -86.000603,
      "lat": 42.95002
    }
  },
  {
    "id": 4985190,
    "name": "Bay County",
    "country": "US",
    "coord": {
      "lon": -84.016647,
      "lat": 43.73336
    }
  },
  {
    "id": 5000477,
    "name": "Macomb County",
    "country": "US",
    "coord": {
      "lon": -82.949928,
      "lat": 42.700031
    }
  },
  {
    "id": 4997130,
    "name": "Ingham County",
    "country": "US",
    "coord": {
      "lon": -84.383301,
      "lat": 42.60004
    }
  },
  {
    "id": 5009706,
    "name": "Shiawassee County",
    "country": "US",
    "coord": {
      "lon": -84.149971,
      "lat": 42.950031
    }
  },
  {
    "id": 5128316,
    "name": "Nassau County",
    "country": "US",
    "coord": {
      "lon": -73.582901,
      "lat": 40.75066
    }
  },
  {
    "id": 6941775,
    "name": "Kings County",
    "country": "US",
    "coord": {
      "lon": -73.949577,
      "lat": 40.650101
    }
  },
  {
    "id": 5113792,
    "name": "Cortland County",
    "country": "US",
    "coord": {
      "lon": -76.082977,
      "lat": 42.600071
    }
  },
  {
    "id": 5112738,
    "name": "City Line",
    "country": "US",
    "coord": {
      "lon": -73.887077,
      "lat": 40.676208
    }
  },
  {
    "id": 5118116,
    "name": "Fulton County",
    "country": "US",
    "coord": {
      "lon": -74.449577,
      "lat": 43.116741
    }
  },
  {
    "id": 5122534,
    "name": "Jamestown",
    "country": "US",
    "coord": {
      "lon": -79.235329,
      "lat": 42.097
    }
  },
  {
    "id": 6332485,
    "name": "Queensbridge Houses",
    "country": "US",
    "coord": {
      "lon": -73.945,
      "lat": 40.75528
    }
  },
  {
    "id": 7250946,
    "name": "Carnegie Hill",
    "country": "US",
    "coord": {
      "lon": -73.95472,
      "lat": 40.783329
    }
  },
  {
    "id": 5133668,
    "name": "Rensselaer County",
    "country": "US",
    "coord": {
      "lon": -73.482887,
      "lat": 42.716751
    }
  },
  {
    "id": 5161640,
    "name": "Mahoning County",
    "country": "US",
    "coord": {
      "lon": -80.766472,
      "lat": 41.03339
    }
  },
  {
    "id": 5151896,
    "name": "Delaware County",
    "country": "US",
    "coord": {
      "lon": -83.000183,
      "lat": 40.266731
    }
  },
  {
    "id": 5145576,
    "name": "Allen County",
    "country": "US",
    "coord": {
      "lon": -84.083282,
      "lat": 40.76672
    }
  },
  {
    "id": 5153362,
    "name": "Erie County",
    "country": "US",
    "coord": {
      "lon": -82.599899,
      "lat": 41.350052
    }
  },
  {
    "id": 5221078,
    "name": "Bristol County",
    "country": "US",
    "coord": {
      "lon": -71.271721,
      "lat": 41.71677
    }
  },
  {
    "id": 5393068,
    "name": "Santa Cruz County",
    "country": "US",
    "coord": {
      "lon": -122.051071,
      "lat": 37.066608
    }
  },
  {
    "id": 5391997,
    "name": "San Francisco County",
    "country": "US",
    "coord": {
      "lon": -122.45108,
      "lat": 37.766602
    }
  },
  {
    "id": 5423573,
    "name": "Grand Junction",
    "country": "US",
    "coord": {
      "lon": -108.550652,
      "lat": 39.063869
    }
  },
  {
    "id": 5525886,
    "name": "Maverick County",
    "country": "US",
    "coord": {
      "lon": -100.350349,
      "lat": 28.76692
    }
  },
  {
    "id": 5522430,
    "name": "Gray County",
    "country": "US",
    "coord": {
      "lon": -100.802002,
      "lat": 35.416698
    }
  },
  {
    "id": 1512838,
    "name": "Shofirkon",
    "country": "UZ",
    "coord": {
      "lon": 64.501389,
      "lat": 40.119999
    }
  },
  {
    "id": 1512978,
    "name": "Qushkupir",
    "country": "UZ",
    "coord": {
      "lon": 60.345558,
      "lat": 41.535
    }
  },
  {
    "id": 1513017,
    "name": "Parkent",
    "country": "UZ",
    "coord": {
      "lon": 69.676392,
      "lat": 41.294441
    }
  },
  {
    "id": 1513023,
    "name": "Pop",
    "country": "UZ",
    "coord": {
      "lon": 71.108887,
      "lat": 40.873611
    }
  },
  {
    "id": 1513038,
    "name": "Paxtakor",
    "country": "UZ",
    "coord": {
      "lon": 67.954437,
      "lat": 40.315281
    }
  },
  {
    "id": 1513092,
    "name": "Novyy Turtkul",
    "country": "UZ",
    "coord": {
      "lon": 61.01667,
      "lat": 41.549999
    }
  },
  {
    "id": 1513245,
    "name": "Manghit",
    "country": "UZ",
    "coord": {
      "lon": 60.059719,
      "lat": 42.115559
    }
  },
  {
    "id": 1513655,
    "name": "Haqqulobod",
    "country": "UZ",
    "coord": {
      "lon": 72.116669,
      "lat": 40.916672
    }
  },
  {
    "id": 1513900,
    "name": "Iskandar",
    "country": "UZ",
    "coord": {
      "lon": 69.700829,
      "lat": 41.55389
    }
  },
  {
    "id": 1513957,
    "name": "Hazorasp",
    "country": "UZ",
    "coord": {
      "lon": 61.074169,
      "lat": 41.319439
    }
  },
  {
    "id": 1514215,
    "name": "Chinoz",
    "country": "UZ",
    "coord": {
      "lon": 68.769722,
      "lat": 40.93639
    }
  },
  {
    "id": 1514330,
    "name": "Buka",
    "country": "UZ",
    "coord": {
      "lon": 69.198608,
      "lat": 40.810829
    }
  },
  {
    "id": 1514387,
    "name": "Beruniy",
    "country": "UZ",
    "coord": {
      "lon": 60.752499,
      "lat": 41.691109
    }
  },
  {
    "id": 1514396,
    "name": "Bektemir",
    "country": "UZ",
    "coord": {
      "lon": 69.334167,
      "lat": 41.209721
    }
  },
  {
    "id": 1526979,
    "name": "Quva",
    "country": "UZ",
    "coord": {
      "lon": 72.072922,
      "lat": 40.522041
    }
  },
  {
    "id": 3748724,
    "name": "Redemption",
    "country": "VC",
    "coord": {
      "lon": -61.229439,
      "lat": 13.16444
    }
  },
  {
    "id": 3649281,
    "name": "Municipio Anaco",
    "country": "VE",
    "coord": {
      "lon": -64.466667,
      "lat": 9.33333
    }
  },
  {
    "id": 3486270,
    "name": "Anaco",
    "country": "VE",
    "coord": {
      "lon": -64.472778,
      "lat": 9.43889
    }
  },
  {
    "id": 3625123,
    "name": "Municipio Zamora",
    "country": "VE",
    "coord": {
      "lon": -67.5,
      "lat": 10.06667
    }
  },
  {
    "id": 3625547,
    "name": "Municipio Valencia",
    "country": "VE",
    "coord": {
      "lon": -68.083328,
      "lat": 10.08333
    }
  },
  {
    "id": 8129205,
    "name": "Municipio Santiago Mariño",
    "country": "VE",
    "coord": {
      "lon": -67.472878,
      "lat": 10.22388
    }
  },
  {
    "id": 3628416,
    "name": "Municipio San Felipe",
    "country": "VE",
    "coord": {
      "lon": -68.633331,
      "lat": 10.5
    }
  },
  {
    "id": 3645361,
    "name": "Municipio Colón",
    "country": "VE",
    "coord": {
      "lon": -72.083328,
      "lat": 9
    }
  },
  {
    "id": 3628494,
    "name": "Municipio San Carlos",
    "country": "VE",
    "coord": {
      "lon": -68.583328,
      "lat": 9.58333
    }
  },
  {
    "id": 8129204,
    "name": "Municipio Los Salias",
    "country": "VE",
    "coord": {
      "lon": -66.95179,
      "lat": 10.38854
    }
  },
  {
    "id": 8129175,
    "name": "Municipio Sucre",
    "country": "VE",
    "coord": {
      "lon": -66.801552,
      "lat": 10.47226
    }
  },
  {
    "id": 8129237,
    "name": "Municipio Libertador",
    "country": "VE",
    "coord": {
      "lon": -67.541939,
      "lat": 10.17389
    }
  },
  {
    "id": 3630932,
    "name": "Palo Negro",
    "country": "VE",
    "coord": {
      "lon": -67.541939,
      "lat": 10.17389
    }
  },
  {
    "id": 3631506,
    "name": "Municipio Nirgua",
    "country": "VE",
    "coord": {
      "lon": -68.666672,
      "lat": 10.08333
    }
  },
  {
    "id": 3631741,
    "name": "Mucumpiz",
    "country": "VE",
    "coord": {
      "lon": -71.133331,
      "lat": 8.41667
    }
  },
  {
    "id": 8129172,
    "name": "Municipio Juan José Mora",
    "country": "VE",
    "coord": {
      "lon": -68.200279,
      "lat": 10.48889
    }
  },
  {
    "id": 3633677,
    "name": "Los Rastrojos",
    "country": "VE",
    "coord": {
      "lon": -69.241661,
      "lat": 10.02588
    }
  },
  {
    "id": 8129202,
    "name": "Municipio José Félix Ribas",
    "country": "VE",
    "coord": {
      "lon": -67.33017,
      "lat": 10.21844
    }
  },
  {
    "id": 8129149,
    "name": "Municipio Santos Michelena",
    "country": "VE",
    "coord": {
      "lon": -67.184723,
      "lat": 10.25237
    }
  },
  {
    "id": 3635325,
    "name": "Las Tejerias",
    "country": "VE",
    "coord": {
      "lon": -67.184723,
      "lat": 10.25237
    }
  },
  {
    "id": 3637623,
    "name": "Lagunillas",
    "country": "VE",
    "coord": {
      "lon": -71.25946,
      "lat": 10.13008
    }
  },
  {
    "id": 8129268,
    "name": "Municipio Vargas",
    "country": "VE",
    "coord": {
      "lon": -66.934601,
      "lat": 10.59901
    }
  },
  {
    "id": 8131449,
    "name": "Municipio Marcano",
    "country": "VE",
    "coord": {
      "lon": -63.964119,
      "lat": 11.08307
    }
  },
  {
    "id": 8131484,
    "name": "Municipio Valdez",
    "country": "VE",
    "coord": {
      "lon": -62.300289,
      "lat": 10.57945
    }
  },
  {
    "id": 3625122,
    "name": "Municipio Zamora",
    "country": "VE",
    "coord": {
      "lon": -66.5,
      "lat": 10.5
    }
  },
  {
    "id": 3630003,
    "name": "Municipio Plaza",
    "country": "VE",
    "coord": {
      "lon": -66.666672,
      "lat": 10.5
    }
  },
  {
    "id": 8131393,
    "name": "Municipio Mario Briceño Iragorry",
    "country": "VE",
    "coord": {
      "lon": -67.633614,
      "lat": 10.30028
    }
  },
  {
    "id": 3642833,
    "name": "El Limon",
    "country": "VE",
    "coord": {
      "lon": -67.632118,
      "lat": 10.30589
    }
  },
  {
    "id": 8129201,
    "name": "Municipio El Hatillo",
    "country": "VE",
    "coord": {
      "lon": -66.816101,
      "lat": 10.42994
    }
  },
  {
    "id": 8129178,
    "name": "Municipio Chacao",
    "country": "VE",
    "coord": {
      "lon": -66.85347,
      "lat": 10.49598
    }
  },
  {
    "id": 3646062,
    "name": "Tacarigua",
    "country": "VE",
    "coord": {
      "lon": -67.919823,
      "lat": 10.08621
    }
  },
  {
    "id": 8131442,
    "name": "Municipio Baruta",
    "country": "VE",
    "coord": {
      "lon": -66.875412,
      "lat": 10.43346
    }
  },
  {
    "id": 8129200,
    "name": "Municipio José Tadeo Monagas",
    "country": "VE",
    "coord": {
      "lon": -66.381393,
      "lat": 9.86005
    }
  },
  {
    "id": 3640668,
    "name": "Municipio García de Hevia",
    "country": "VE",
    "coord": {
      "lon": -72.25,
      "lat": 8.33333
    }
  },
  {
    "id": 1559969,
    "name": "Tỉnh Nghệ An",
    "country": "VN",
    "coord": {
      "lon": 104.833328,
      "lat": 19.33333
    }
  },
  {
    "id": 1905577,
    "name": "Tỉnh Phú Thọ",
    "country": "VN",
    "coord": {
      "lon": 105.166672,
      "lat": 21.33333
    }
  },
  {
    "id": 1562820,
    "name": "Viet Tri",
    "country": "VN",
    "coord": {
      "lon": 105.430832,
      "lat": 21.301941
    }
  },
  {
    "id": 1568758,
    "name": "Tỉnh Quảng Ninh",
    "country": "VN",
    "coord": {
      "lon": 107.333328,
      "lat": 21.25
    }
  },
  {
    "id": 1569805,
    "name": "Tỉnh Phú Yên",
    "country": "VN",
    "coord": {
      "lon": 109.166672,
      "lat": 13.16667
    }
  },
  {
    "id": 6165683,
    "name": "Thornhill",
    "country": "CA",
    "coord": {
      "lon": -79.416298,
      "lat": 43.80011
    }
  },
  {
    "id": 6111881,
    "name": "Port Hope",
    "country": "CA",
    "coord": {
      "lon": -78.292992,
      "lat": 43.951172
    }
  },
  {
    "id": 4004156,
    "name": "Estado de Jalisco",
    "country": "MX",
    "coord": {
      "lon": -103.666672,
      "lat": 20.33333
    }
  },
  {
    "id": 3982729,
    "name": "Tabasco",
    "country": "MX",
    "coord": {
      "lon": -102.916672,
      "lat": 21.866671
    }
  },
  {
    "id": 2900752,
    "name": "Holdereggen",
    "country": "DE",
    "coord": {
      "lon": 9.68333,
      "lat": 47.549999
    }
  },
  {
    "id": 3249065,
    "name": "Landkreis Saarlouis",
    "country": "DE",
    "coord": {
      "lon": 6.78944,
      "lat": 49.338612
    }
  },
  {
    "id": 2842569,
    "name": "Sachsen",
    "country": "DE",
    "coord": {
      "lon": 10.4,
      "lat": 49.299999
    }
  },
  {
    "id": 2826166,
    "name": "Straße",
    "country": "DE",
    "coord": {
      "lon": 7.48333,
      "lat": 50.866669
    }
  },
  {
    "id": 2941283,
    "name": "Burghaun",
    "country": "DE",
    "coord": {
      "lon": 9.72453,
      "lat": 50.696838
    }
  },
  {
    "id": 2891205,
    "name": "Kiedrich",
    "country": "DE",
    "coord": {
      "lon": 8.08333,
      "lat": 50.033329
    }
  },
  {
    "id": 2911739,
    "name": "Haiterbach",
    "country": "DE",
    "coord": {
      "lon": 8.65,
      "lat": 48.533329
    }
  },
  {
    "id": 2865825,
    "name": "Neuenberg",
    "country": "DE",
    "coord": {
      "lon": 9.66145,
      "lat": 50.546268
    }
  },
  {
    "id": 6555433,
    "name": "Schlaitdorf",
    "country": "DE",
    "coord": {
      "lon": 9.22302,
      "lat": 48.604252
    }
  },
  {
    "id": 2823141,
    "name": "Thale",
    "country": "DE",
    "coord": {
      "lon": 11.05,
      "lat": 51.75
    }
  },
  {
    "id": 2821254,
    "name": "Treuchtlingen",
    "country": "DE",
    "coord": {
      "lon": 10.91667,
      "lat": 48.950001
    }
  },
  {
    "id": 2888846,
    "name": "Klein Glienicke",
    "country": "DE",
    "coord": {
      "lon": 13.1,
      "lat": 52.416672
    }
  },
  {
    "id": 6553115,
    "name": "Ostbevern",
    "country": "DE",
    "coord": {
      "lon": 7.839,
      "lat": 52.056599
    }
  },
  {
    "id": 2928927,
    "name": "Eselsburg",
    "country": "DE",
    "coord": {
      "lon": 14.1,
      "lat": 51.26667
    }
  },
  {
    "id": 2848920,
    "name": "Reifert",
    "country": "DE",
    "coord": {
      "lon": 7.38333,
      "lat": 50.566669
    }
  },
  {
    "id": 2751791,
    "name": "Gemeente Leeuwarden",
    "country": "NL",
    "coord": {
      "lon": 5.78333,
      "lat": 53.183331
    }
  },
  {
    "id": 2754273,
    "name": "Het Hazebos",
    "country": "NL",
    "coord": {
      "lon": 6.60543,
      "lat": 52.564899
    }
  },
  {
    "id": 7874246,
    "name": "Musiskwartier",
    "country": "NL",
    "coord": {
      "lon": 5.91203,
      "lat": 51.982712
    }
  },
  {
    "id": 2658457,
    "name": "Suhr",
    "country": "CH",
    "coord": {
      "lon": 8.07967,
      "lat": 47.371719
    }
  },
  {
    "id": 3866425,
    "name": "Albardon",
    "country": "AR",
    "coord": {
      "lon": -68.525558,
      "lat": -31.43722
    }
  },
  {
    "id": 586925,
    "name": "Buzovna",
    "country": "AZ",
    "coord": {
      "lon": 50.113899,
      "lat": 40.517891
    }
  },
  {
    "id": 587261,
    "name": "Amirdzhan",
    "country": "AZ",
    "coord": {
      "lon": 49.983608,
      "lat": 40.426392
    }
  },
  {
    "id": 587342,
    "name": "Aghsu Rayon",
    "country": "AZ",
    "coord": {
      "lon": 48.333328,
      "lat": 40.5
    }
  },
  {
    "id": 1185111,
    "name": "Satkhira",
    "country": "BD",
    "coord": {
      "lon": 89.099998,
      "lat": 22.716669
    }
  },
  {
    "id": 2787891,
    "name": "Roeselare",
    "country": "BE",
    "coord": {
      "lon": 3.13333,
      "lat": 50.950001
    }
  },
  {
    "id": 2788507,
    "name": "Puurs",
    "country": "BE",
    "coord": {
      "lon": 4.28999,
      "lat": 51.075001
    }
  },
  {
    "id": 2353169,
    "name": "Province du Zoundwéogo",
    "country": "BF",
    "coord": {
      "lon": -1,
      "lat": 11.58333
    }
  },
  {
    "id": 2360615,
    "name": "Garango",
    "country": "BF",
    "coord": {
      "lon": -0.55056,
      "lat": 11.8
    }
  },
  {
    "id": 2355248,
    "name": "Province du Soum",
    "country": "BF",
    "coord": {
      "lon": -1.25,
      "lat": 14.33333
    }
  },
  {
    "id": 2354771,
    "name": "Province de la Tapoa",
    "country": "BF",
    "coord": {
      "lon": 1.75,
      "lat": 12
    }
  },
  {
    "id": 425551,
    "name": "Muramvya",
    "country": "BI",
    "coord": {
      "lon": 29.607901,
      "lat": -3.2682
    }
  },
  {
    "id": 2391377,
    "name": "Tchaourou",
    "country": "BJ",
    "coord": {
      "lon": 2.59752,
      "lat": 8.88649
    }
  },
  {
    "id": 2395261,
    "name": "Bassila",
    "country": "BJ",
    "coord": {
      "lon": 1.6654,
      "lat": 9.00814
    }
  },
  {
    "id": 3385122,
    "name": "Viana",
    "country": "BR",
    "coord": {
      "lon": -45.003609,
      "lat": -3.22028
    }
  },
  {
    "id": 3386567,
    "name": "Sao Joao dos Inhamuns",
    "country": "BR",
    "coord": {
      "lon": -40.283329,
      "lat": -6
    }
  },
  {
    "id": 3387266,
    "name": "Solanea",
    "country": "BR",
    "coord": {
      "lon": -35.540001,
      "lat": -6.755
    }
  },
  {
    "id": 3447473,
    "name": "Sobradinho",
    "country": "BR",
    "coord": {
      "lon": -39.099998,
      "lat": -12.83333
    }
  },
  {
    "id": 218253,
    "name": "Bondo",
    "country": "CD",
    "coord": {
      "lon": 23.686649,
      "lat": 3.81461
    }
  },
  {
    "id": 238566,
    "name": "Ippy",
    "country": "CF",
    "coord": {
      "lon": 21.22468,
      "lat": 6.26793
    }
  },
  {
    "id": 3874943,
    "name": "Puerto Quellon",
    "country": "CL",
    "coord": {
      "lon": -73.616669,
      "lat": -43.116669
    }
  },
  {
    "id": 3879123,
    "name": "Nacimiento",
    "country": "CL",
    "coord": {
      "lon": -72.666672,
      "lat": -37.5
    }
  },
  {
    "id": 2228005,
    "name": "Mbanga",
    "country": "CM",
    "coord": {
      "lon": 9.5671,
      "lat": 4.5016
    }
  },
  {
    "id": 2228675,
    "name": "Mamfe",
    "country": "CM",
    "coord": {
      "lon": 9.3123,
      "lat": 5.754
    }
  },
  {
    "id": 2491335,
    "name": "Ksar Chellala",
    "country": "DZ",
    "coord": {
      "lon": 2.31889,
      "lat": 35.212219
    }
  },
  {
    "id": 2492345,
    "name": "Kerkera",
    "country": "DZ",
    "coord": {
      "lon": 6.58556,
      "lat": 36.929169
    }
  },
  {
    "id": 2498752,
    "name": "El Affroun",
    "country": "DZ",
    "coord": {
      "lon": 2.62528,
      "lat": 36.4701
    }
  },
  {
    "id": 360542,
    "name": "Al Qurayn",
    "country": "EG",
    "coord": {
      "lon": 31.73514,
      "lat": 30.61618
    }
  },
  {
    "id": 361495,
    "name": "Al Ayyat",
    "country": "EG",
    "coord": {
      "lon": 31.2575,
      "lat": 29.61972
    }
  },
  {
    "id": 362882,
    "name": "Abu al Matamir",
    "country": "EG",
    "coord": {
      "lon": 30.174379,
      "lat": 30.910179
    }
  },
  {
    "id": 448500,
    "name": "Zoba Gash-Barka",
    "country": "ER",
    "coord": {
      "lon": 37.5,
      "lat": 15.25
    }
  },
  {
    "id": 330811,
    "name": "Metahara",
    "country": "ET",
    "coord": {
      "lon": 39.916672,
      "lat": 8.9
    }
  },
  {
    "id": 332746,
    "name": "Korem",
    "country": "ET",
    "coord": {
      "lon": 39.522781,
      "lat": 12.50583
    }
  },
  {
    "id": 336372,
    "name": "Giyon",
    "country": "ET",
    "coord": {
      "lon": 37.98333,
      "lat": 8.53333
    }
  },
  {
    "id": 336496,
    "name": "Gimbi",
    "country": "ET",
    "coord": {
      "lon": 35.833328,
      "lat": 9.16667
    }
  },
  {
    "id": 336931,
    "name": "Genet",
    "country": "ET",
    "coord": {
      "lon": 38.5,
      "lat": 9.06667
    }
  },
  {
    "id": 337712,
    "name": "Finote Selam",
    "country": "ET",
    "coord": {
      "lon": 37.26667,
      "lat": 10.7
    }
  },
  {
    "id": 338726,
    "name": "Dodola",
    "country": "ET",
    "coord": {
      "lon": 39.183331,
      "lat": 6.98333
    }
  },
  {
    "id": 341297,
    "name": "Butajira",
    "country": "ET",
    "coord": {
      "lon": 38.366669,
      "lat": 8.11667
    }
  },
  {
    "id": 343409,
    "name": "Asaita",
    "country": "ET",
    "coord": {
      "lon": 41.439442,
      "lat": 11.56361
    }
  },
  {
    "id": 343413,
    "name": "Asasa",
    "country": "ET",
    "coord": {
      "lon": 39.200001,
      "lat": 7.1
    }
  },
  {
    "id": 343593,
    "name": "Areka",
    "country": "ET",
    "coord": {
      "lon": 37.700001,
      "lat": 7.06667
    }
  },
  {
    "id": 6434715,
    "name": "Saint-Jean-de-la-Ruelle",
    "country": "FR",
    "coord": {
      "lon": 1.86667,
      "lat": 47.916672
    }
  },
  {
    "id": 6434515,
    "name": "Saint-Herblain",
    "country": "FR",
    "coord": {
      "lon": -1.65,
      "lat": 47.216671
    }
  },
  {
    "id": 6614010,
    "name": "Saint-Étienne",
    "country": "FR",
    "coord": {
      "lon": 4.4,
      "lat": 45.433331
    }
  },
  {
    "id": 6433106,
    "name": "Saint-Cyr-sur-Loire",
    "country": "FR",
    "coord": {
      "lon": 0.66667,
      "lat": 47.400002
    }
  },
  {
    "id": 6455259,
    "name": "Paris",
    "country": "FR",
    "coord": {
      "lon": 2.35236,
      "lat": 48.856461
    }
  },
  {
    "id": 3031132,
    "name": "Arrondissement de Boulogne-sur-Mer",
    "country": "FR",
    "coord": {
      "lon": 1.83333,
      "lat": 50.75
    }
  },
  {
    "id": 6439779,
    "name": "Outreau",
    "country": "FR",
    "coord": {
      "lon": 1.58333,
      "lat": 50.700001
    }
  },
  {
    "id": 2989170,
    "name": "Orvault",
    "country": "FR",
    "coord": {
      "lon": -1.6219,
      "lat": 47.27095
    }
  },
  {
    "id": 2994149,
    "name": "Arrondissement de Metz-Ville",
    "country": "FR",
    "coord": {
      "lon": 6.16667,
      "lat": 49.083328
    }
  },
  {
    "id": 6455403,
    "name": "Maurepas",
    "country": "FR",
    "coord": {
      "lon": 1.91667,
      "lat": 48.76667
    }
  },
  {
    "id": 6453527,
    "name": "Laon",
    "country": "FR",
    "coord": {
      "lon": 3.61667,
      "lat": 49.566669
    }
  },
  {
    "id": 6457117,
    "name": "La Crau",
    "country": "FR",
    "coord": {
      "lon": 6.06667,
      "lat": 43.150002
    }
  },
  {
    "id": 6457183,
    "name": "La Courneuve",
    "country": "FR",
    "coord": {
      "lon": 2.3966,
      "lat": 48.931198
    }
  },
  {
    "id": 6613140,
    "name": "Gentilly",
    "country": "FR",
    "coord": {
      "lon": 2.33333,
      "lat": 48.816669
    }
  },
  {
    "id": 6451968,
    "name": "Garches",
    "country": "FR",
    "coord": {
      "lon": 2.18333,
      "lat": 48.849998
    }
  },
  {
    "id": 6454404,
    "name": "Croix",
    "country": "FR",
    "coord": {
      "lon": 3.15,
      "lat": 50.666672
    }
  },
  {
    "id": 6449087,
    "name": "Couëron",
    "country": "FR",
    "coord": {
      "lon": -1.73333,
      "lat": 47.216671
    }
  },
  {
    "id": 1213530,
    "name": "Tanjungtiram",
    "country": "ID",
    "coord": {
      "lon": 98.369904,
      "lat": 4.0613
    }
  },
  {
    "id": 1214189,
    "name": "Percut",
    "country": "ID",
    "coord": {
      "lon": 98.863998,
      "lat": 3.6253
    }
  },
  {
    "id": 1214191,
    "name": "Perbaungan",
    "country": "ID",
    "coord": {
      "lon": 98.956001,
      "lat": 3.5679
    }
  },
  {
    "id": 1214800,
    "name": "Labuhan Deli",
    "country": "ID",
    "coord": {
      "lon": 98.673798,
      "lat": 3.7278
    }
  },
  {
    "id": 1215199,
    "name": "Deli Tua",
    "country": "ID",
    "coord": {
      "lon": 98.683899,
      "lat": 3.5078
    }
  },
  {
    "id": 1215350,
    "name": "Bireun",
    "country": "ID",
    "coord": {
      "lon": 96.700897,
      "lat": 5.203
    }
  },
  {
    "id": 1621520,
    "name": "Wiradesa",
    "country": "ID",
    "coord": {
      "lon": 109.619003,
      "lat": -6.8922
    }
  },
  {
    "id": 1621613,
    "name": "Weru",
    "country": "ID",
    "coord": {
      "lon": 108.5037,
      "lat": -6.711
    }
  },
  {
    "id": 1621659,
    "name": "Welahan",
    "country": "ID",
    "coord": {
      "lon": 110.716667,
      "lat": -6.8
    }
  },
  {
    "id": 1622090,
    "name": "Wangon",
    "country": "ID",
    "coord": {
      "lon": 109.053886,
      "lat": -7.51611
    }
  },
  {
    "id": 1622636,
    "name": "Ungaran",
    "country": "ID",
    "coord": {
      "lon": 110.404999,
      "lat": -7.13972
    }
  },
  {
    "id": 1623080,
    "name": "Tulungagung",
    "country": "ID",
    "coord": {
      "lon": 111.902496,
      "lat": -8.0657
    }
  },
  {
    "id": 1624545,
    "name": "Tayu",
    "country": "ID",
    "coord": {
      "lon": 111.051804,
      "lat": -6.5397
    }
  },
  {
    "id": 1630088,
    "name": "Randudongkal",
    "country": "ID",
    "coord": {
      "lon": 109.324303,
      "lat": -7.0981
    }
  },
  {
    "id": 1630997,
    "name": "Plumbon",
    "country": "ID",
    "coord": {
      "lon": 108.472778,
      "lat": -6.705
    }
  },
  {
    "id": 1632276,
    "name": "Parung",
    "country": "ID",
    "coord": {
      "lon": 106.733063,
      "lat": -6.42139
    }
  },
  {
    "id": 1632566,
    "name": "Panji",
    "country": "ID",
    "coord": {
      "lon": 114.099541,
      "lat": -7.72528
    }
  },
  {
    "id": 1632694,
    "name": "Pangkalanbuun",
    "country": "ID",
    "coord": {
      "lon": 111.616669,
      "lat": -2.68333
    }
  },
  {
    "id": 1632937,
    "name": "Pamulang",
    "country": "ID",
    "coord": {
      "lon": 106.738327,
      "lat": -6.34278
    }
  },
  {
    "id": 1633182,
    "name": "Pakisaji",
    "country": "ID",
    "coord": {
      "lon": 112.598099,
      "lat": -8.0665
    }
  },
  {
    "id": 1638775,
    "name": "Lahat",
    "country": "ID",
    "coord": {
      "lon": 103.533333,
      "lat": -3.8
    }
  },
  {
    "id": 1638870,
    "name": "Labuan",
    "country": "ID",
    "coord": {
      "lon": 105.830002,
      "lat": -6.3784
    }
  },
  {
    "id": 1638981,
    "name": "Kutoarjo",
    "country": "ID",
    "coord": {
      "lon": 109.912781,
      "lat": -7.71694
    }
  },
  {
    "id": 1639337,
    "name": "Kroya",
    "country": "ID",
    "coord": {
      "lon": 109.246109,
      "lat": -7.63306
    }
  },
  {
    "id": 1639356,
    "name": "Krian",
    "country": "ID",
    "coord": {
      "lon": 112.579201,
      "lat": -7.4104
    }
  },
  {
    "id": 1639850,
    "name": "Klungkung",
    "country": "ID",
    "coord": {
      "lon": 115.400002,
      "lat": -8.53333
    }
  },
  {
    "id": 1640044,
    "name": "Kijang",
    "country": "ID",
    "coord": {
      "lon": 104.633331,
      "lat": 0.9
    }
  },
  {
    "id": 1640138,
    "name": "Ketanggungan",
    "country": "ID",
    "coord": {
      "lon": 108.890999,
      "lat": -6.9383
    }
  },
  {
    "id": 1642628,
    "name": "Jekulo",
    "country": "ID",
    "coord": {
      "lon": 110.926201,
      "lat": -6.8057
    }
  },
  {
    "id": 1643981,
    "name": "Godean",
    "country": "ID",
    "coord": {
      "lon": 110.293892,
      "lat": -7.76972
    }
  },
  {
    "id": 1646448,
    "name": "Cimahi",
    "country": "ID",
    "coord": {
      "lon": 107.542503,
      "lat": -6.87222
    }
  },
  {
    "id": 1647936,
    "name": "Buduran",
    "country": "ID",
    "coord": {
      "lon": 112.723396,
      "lat": -7.4281
    }
  },
  {
    "id": 1648266,
    "name": "Bondowoso",
    "country": "ID",
    "coord": {
      "lon": 113.821449,
      "lat": -7.91346
    }
  },
  {
    "id": 1648451,
    "name": "Bojonegoro",
    "country": "ID",
    "coord": {
      "lon": 111.881699,
      "lat": -7.1502
    }
  },
  {
    "id": 1648759,
    "name": "Bima",
    "country": "ID",
    "coord": {
      "lon": 118.716667,
      "lat": -8.46667
    }
  },
  {
    "id": 1650319,
    "name": "Bangil",
    "country": "ID",
    "coord": {
      "lon": 112.818604,
      "lat": -7.59939
    }
  },
  {
    "id": 294387,
    "name": "Maghar",
    "country": "IL",
    "coord": {
      "lon": 35.407028,
      "lat": 32.889839
    }
  },
  {
    "id": 1252840,
    "name": "Wokha",
    "country": "IN",
    "coord": {
      "lon": 94.26667,
      "lat": 26.1
    }
  },
  {
    "id": 1252925,
    "name": "Warora",
    "country": "IN",
    "coord": {
      "lon": 79,
      "lat": 20.23333
    }
  },
  {
    "id": 1252946,
    "name": "Waraseoni",
    "country": "IN",
    "coord": {
      "lon": 80.033333,
      "lat": 21.75
    }
  },
  {
    "id": 1253041,
    "name": "Wadi",
    "country": "IN",
    "coord": {
      "lon": 76.98333,
      "lat": 17.066669
    }
  },
  {
    "id": 1253132,
    "name": "Virarajendrapet",
    "country": "IN",
    "coord": {
      "lon": 75.800003,
      "lat": 12.2
    }
  },
  {
    "id": 1253133,
    "name": "Virar",
    "country": "IN",
    "coord": {
      "lon": 72.800003,
      "lat": 19.466669
    }
  },
  {
    "id": 1253219,
    "name": "Vettaikkaranpudur",
    "country": "IN",
    "coord": {
      "lon": 76.933327,
      "lat": 10.56667
    }
  },
  {
    "id": 1253330,
    "name": "Vedaraniyam",
    "country": "IN",
    "coord": {
      "lon": 79.849998,
      "lat": 10.36667
    }
  },
  {
    "id": 1253340,
    "name": "Vayalar",
    "country": "IN",
    "coord": {
      "lon": 76.333328,
      "lat": 9.7
    }
  },
  {
    "id": 1253357,
    "name": "Vasudevanallur",
    "country": "IN",
    "coord": {
      "lon": 77.416672,
      "lat": 9.23333
    }
  },
  {
    "id": 1253605,
    "name": "Vadakku Valliyur",
    "country": "IN",
    "coord": {
      "lon": 77.650002,
      "lat": 8.38333
    }
  },
  {
    "id": 1253671,
    "name": "Usilampatti",
    "country": "IN",
    "coord": {
      "lon": 77.800003,
      "lat": 9.96667
    }
  },
  {
    "id": 1253698,
    "name": "Uravakonda",
    "country": "IN",
    "coord": {
      "lon": 77.26667,
      "lat": 14.95
    }
  },
  {
    "id": 1253702,
    "name": "Uran",
    "country": "IN",
    "coord": {
      "lon": 72.93972,
      "lat": 18.87694
    }
  },
  {
    "id": 1253736,
    "name": "Upleta",
    "country": "IN",
    "coord": {
      "lon": 70.283333,
      "lat": 21.73333
    }
  },
  {
    "id": 1253744,
    "name": "Uppal Kalan",
    "country": "IN",
    "coord": {
      "lon": 78.559113,
      "lat": 17.405769
    }
  },
  {
    "id": 1253747,
    "name": "Unnao",
    "country": "IN",
    "coord": {
      "lon": 80.5,
      "lat": 26.533331
    }
  },
  {
    "id": 1253750,
    "name": "Unjha",
    "country": "IN",
    "coord": {
      "lon": 72.400002,
      "lat": 23.799999
    }
  },
  {
    "id": 1253786,
    "name": "Un",
    "country": "IN",
    "coord": {
      "lon": 71.76667,
      "lat": 23.883329
    }
  },
  {
    "id": 1253805,
    "name": "Umreth",
    "country": "IN",
    "coord": {
      "lon": 73.116669,
      "lat": 22.700001
    }
  },
  {
    "id": 1253807,
    "name": "Umred",
    "country": "IN",
    "coord": {
      "lon": 79.333328,
      "lat": 20.85
    }
  },
  {
    "id": 1254043,
    "name": "Turaiyur",
    "country": "IN",
    "coord": {
      "lon": 78.616669,
      "lat": 11.16667
    }
  },
  {
    "id": 1254282,
    "name": "Todaraisingh",
    "country": "IN",
    "coord": {
      "lon": 75.48333,
      "lat": 26.01667
    }
  },
  {
    "id": 1254304,
    "name": "Titlagarh",
    "country": "IN",
    "coord": {
      "lon": 83.150002,
      "lat": 20.299999
    }
  },
  {
    "id": 1254317,
    "name": "Tisaiyanvilai",
    "country": "IN",
    "coord": {
      "lon": 77.883331,
      "lat": 8.33333
    }
  },
  {
    "id": 1254335,
    "name": "Tiruvalla",
    "country": "IN",
    "coord": {
      "lon": 76.566673,
      "lat": 9.38333
    }
  },
  {
    "id": 1254727,
    "name": "Terdal",
    "country": "IN",
    "coord": {
      "lon": 75.050003,
      "lat": 16.5
    }
  },
  {
    "id": 1254732,
    "name": "Teonthar",
    "country": "IN",
    "coord": {
      "lon": 81.650002,
      "lat": 24.98333
    }
  },
  {
    "id": 1254794,
    "name": "Tekkali",
    "country": "IN",
    "coord": {
      "lon": 84.23333,
      "lat": 18.616671
    }
  },
  {
    "id": 1254797,
    "name": "Tekari",
    "country": "IN",
    "coord": {
      "lon": 84.833328,
      "lat": 24.933331
    }
  },
  {
    "id": 1254868,
    "name": "Tarn Taran",
    "country": "IN",
    "coord": {
      "lon": 74.925278,
      "lat": 31.450001
    }
  },
  {
    "id": 1254909,
    "name": "Tarana",
    "country": "IN",
    "coord": {
      "lon": 76.033333,
      "lat": 23.33333
    }
  },
  {
    "id": 1254953,
    "name": "Tanuku",
    "country": "IN",
    "coord": {
      "lon": 81.699997,
      "lat": 16.75
    }
  },
  {
    "id": 1255027,
    "name": "Tanakpur",
    "country": "IN",
    "coord": {
      "lon": 80.116669,
      "lat": 29.08333
    }
  },
  {
    "id": 1255076,
    "name": "Talwara",
    "country": "IN",
    "coord": {
      "lon": 75.866669,
      "lat": 31.94861
    }
  },
  {
    "id": 1255104,
    "name": "Taloda",
    "country": "IN",
    "coord": {
      "lon": 74.216667,
      "lat": 21.566669
    }
  },
  {
    "id": 1255121,
    "name": "Taliparamba",
    "country": "IN",
    "coord": {
      "lon": 75.349998,
      "lat": 12.05
    }
  },
  {
    "id": 1255131,
    "name": "Taleigao",
    "country": "IN",
    "coord": {
      "lon": 73.800003,
      "lat": 15.46667
    }
  },
  {
    "id": 1255211,
    "name": "Taki",
    "country": "IN",
    "coord": {
      "lon": 88.921387,
      "lat": 22.586109
    }
  },
  {
    "id": 1255344,
    "name": "Suriapet",
    "country": "IN",
    "coord": {
      "lon": 79.616669,
      "lat": 17.15
    }
  },
  {
    "id": 1255483,
    "name": "Suluru",
    "country": "IN",
    "coord": {
      "lon": 80.01667,
      "lat": 13.7
    }
  },
  {
    "id": 1255488,
    "name": "Sultanpur",
    "country": "IN",
    "coord": {
      "lon": 75.199722,
      "lat": 31.215281
    }
  },
  {
    "id": 1255551,
    "name": "Suket",
    "country": "IN",
    "coord": {
      "lon": 76.033333,
      "lat": 24.65
    }
  },
  {
    "id": 1255597,
    "name": "Suar",
    "country": "IN",
    "coord": {
      "lon": 79.050003,
      "lat": 29.033331
    }
  },
  {
    "id": 1255620,
    "name": "Srivaikuntam",
    "country": "IN",
    "coord": {
      "lon": 77.933327,
      "lat": 8.61667
    }
  },
  {
    "id": 1255621,
    "name": "Srisailam",
    "country": "IN",
    "coord": {
      "lon": 78.866669,
      "lat": 16.08333
    }
  },
  {
    "id": 1255625,
    "name": "Sriramnagar",
    "country": "IN",
    "coord": {
      "lon": 78.25544,
      "lat": 17.26652
    }
  },
  {
    "id": 1255630,
    "name": "Sriperumbudur",
    "country": "IN",
    "coord": {
      "lon": 79.948891,
      "lat": 12.96889
    }
  },
  {
    "id": 1255714,
    "name": "Sopur",
    "country": "IN",
    "coord": {
      "lon": 74.466667,
      "lat": 34.299999
    }
  },
  {
    "id": 1255762,
    "name": "Songadh",
    "country": "IN",
    "coord": {
      "lon": 73.566673,
      "lat": 21.16667
    }
  },
  {
    "id": 1255788,
    "name": "Sonari",
    "country": "IN",
    "coord": {
      "lon": 95.033333,
      "lat": 27.066669
    }
  },
  {
    "id": 1255860,
    "name": "Sojat",
    "country": "IN",
    "coord": {
      "lon": 73.666672,
      "lat": 25.91667
    }
  },
  {
    "id": 1255884,
    "name": "Sohagpur",
    "country": "IN",
    "coord": {
      "lon": 78.199997,
      "lat": 22.700001
    }
  },
  {
    "id": 1255925,
    "name": "Siwana",
    "country": "IN",
    "coord": {
      "lon": 72.416672,
      "lat": 25.633329
    }
  },
  {
    "id": 1255927,
    "name": "Siwan",
    "country": "IN",
    "coord": {
      "lon": 84.366669,
      "lat": 26.216669
    }
  },
  {
    "id": 1255963,
    "name": "Sitarganj",
    "country": "IN",
    "coord": {
      "lon": 79.699997,
      "lat": 28.933331
    }
  },
  {
    "id": 1256029,
    "name": "Siruguppa",
    "country": "IN",
    "coord": {
      "lon": 76.900002,
      "lat": 15.63333
    }
  },
  {
    "id": 1256039,
    "name": "Sirsilla",
    "country": "IN",
    "coord": {
      "lon": 78.833328,
      "lat": 18.383329
    }
  },
  {
    "id": 1256176,
    "name": "Singarayakonda",
    "country": "IN",
    "coord": {
      "lon": 80.033333,
      "lat": 15.25
    }
  },
  {
    "id": 1256184,
    "name": "Singanallur",
    "country": "IN",
    "coord": {
      "lon": 77.01667,
      "lat": 11
    }
  },
  {
    "id": 1256333,
    "name": "Sikka",
    "country": "IN",
    "coord": {
      "lon": 69.833328,
      "lat": 22.433331
    }
  },
  {
    "id": 1256369,
    "name": "Sidhi",
    "country": "IN",
    "coord": {
      "lon": 81.883331,
      "lat": 24.41667
    }
  },
  {
    "id": 1256372,
    "name": "Sidhauli",
    "country": "IN",
    "coord": {
      "lon": 80.833328,
      "lat": 27.283331
    }
  },
  {
    "id": 1256382,
    "name": "Siddhapur",
    "country": "IN",
    "coord": {
      "lon": 72.383331,
      "lat": 23.91667
    }
  },
  {
    "id": 1256418,
    "name": "Shujalpur",
    "country": "IN",
    "coord": {
      "lon": 76.716667,
      "lat": 23.4
    }
  },
  {
    "id": 1256539,
    "name": "Shiggaon",
    "country": "IN",
    "coord": {
      "lon": 75.23333,
      "lat": 15
    }
  },
  {
    "id": 1256558,
    "name": "Shertallai",
    "country": "IN",
    "coord": {
      "lon": 76.333328,
      "lat": 9.7
    }
  },
  {
    "id": 1256722,
    "name": "Shahpur",
    "country": "IN",
    "coord": {
      "lon": 76.833328,
      "lat": 16.700001
    }
  },
  {
    "id": 1256913,
    "name": "Sehore",
    "country": "IN",
    "coord": {
      "lon": 77.083328,
      "lat": 23.200001
    }
  },
  {
    "id": 1256922,
    "name": "Secunderabad",
    "country": "IN",
    "coord": {
      "lon": 78.542633,
      "lat": 17.504271
    }
  },
  {
    "id": 1256929,
    "name": "Sayla",
    "country": "IN",
    "coord": {
      "lon": 71.466667,
      "lat": 22.549999
    }
  },
  {
    "id": 1256959,
    "name": "Savda",
    "country": "IN",
    "coord": {
      "lon": 75.883331,
      "lat": 21.15
    }
  },
  {
    "id": 1256989,
    "name": "Sathyamangalam",
    "country": "IN",
    "coord": {
      "lon": 77.25,
      "lat": 11.51667
    }
  },
  {
    "id": 1257093,
    "name": "Sarwar",
    "country": "IN",
    "coord": {
      "lon": 75,
      "lat": 26.066669
    }
  },
  {
    "id": 1257191,
    "name": "Sardulgarh",
    "country": "IN",
    "coord": {
      "lon": 75.25,
      "lat": 29.700001
    }
  },
  {
    "id": 1257198,
    "name": "Sardarshahr",
    "country": "IN",
    "coord": {
      "lon": 74.48333,
      "lat": 28.433331
    }
  },
  {
    "id": 1257307,
    "name": "Saoner",
    "country": "IN",
    "coord": {
      "lon": 78.900002,
      "lat": 21.383329
    }
  },
  {
    "id": 1257409,
    "name": "Sangola",
    "country": "IN",
    "coord": {
      "lon": 75.199997,
      "lat": 17.433331
    }
  },
  {
    "id": 1257410,
    "name": "Sangod",
    "country": "IN",
    "coord": {
      "lon": 76.283333,
      "lat": 24.91667
    }
  },
  {
    "id": 1257429,
    "name": "Sangaria",
    "country": "IN",
    "coord": {
      "lon": 74.449997,
      "lat": 29.799999
    }
  },
  {
    "id": 1257456,
    "name": "Sandur",
    "country": "IN",
    "coord": {
      "lon": 76.550003,
      "lat": 15.1
    }
  },
  {
    "id": 1257477,
    "name": "Sanchor",
    "country": "IN",
    "coord": {
      "lon": 71.772217,
      "lat": 24.75528
    }
  },
  {
    "id": 1257481,
    "name": "Sanawad",
    "country": "IN",
    "coord": {
      "lon": 76.066673,
      "lat": 22.183331
    }
  },
  {
    "id": 1257528,
    "name": "Samdari",
    "country": "IN",
    "coord": {
      "lon": 72.583328,
      "lat": 25.816669
    }
  },
  {
    "id": 1257542,
    "name": "Sambalpur",
    "country": "IN",
    "coord": {
      "lon": 83.966667,
      "lat": 21.450001
    }
  },
  {
    "id": 1257698,
    "name": "Sakleshpur",
    "country": "IN",
    "coord": {
      "lon": 75.783333,
      "lat": 12.96667
    }
  },
  {
    "id": 1257751,
    "name": "Sainthia",
    "country": "IN",
    "coord": {
      "lon": 87.666672,
      "lat": 23.950001
    }
  },
  {
    "id": 1257936,
    "name": "Rusera",
    "country": "IN",
    "coord": {
      "lon": 86.033333,
      "lat": 25.75
    }
  },
  {
    "id": 1258111,
    "name": "Robertsganj",
    "country": "IN",
    "coord": {
      "lon": 83.066673,
      "lat": 24.700001
    }
  },
  {
    "id": 1258229,
    "name": "Remuna",
    "country": "IN",
    "coord": {
      "lon": 86.872223,
      "lat": 21.52611
    }
  },
  {
    "id": 1258247,
    "name": "Rehli",
    "country": "IN",
    "coord": {
      "lon": 79.083328,
      "lat": 23.633329
    }
  },
  {
    "id": 1258278,
    "name": "Raybag",
    "country": "IN",
    "coord": {
      "lon": 74.783333,
      "lat": 16.48333
    }
  },
  {
    "id": 1258294,
    "name": "Raxaul",
    "country": "IN",
    "coord": {
      "lon": 84.849998,
      "lat": 26.98333
    }
  },
  {
    "id": 1258342,
    "name": "Ratlam",
    "country": "IN",
    "coord": {
      "lon": 75.066673,
      "lat": 23.316669
    }
  },
  {
    "id": 1258386,
    "name": "Rasipuram",
    "country": "IN",
    "coord": {
      "lon": 78.166672,
      "lat": 11.46667
    }
  },
  {
    "id": 1258584,
    "name": "Rampura",
    "country": "IN",
    "coord": {
      "lon": 75.23333,
      "lat": 30.25
    }
  },
  {
    "id": 1258952,
    "name": "Raisen",
    "country": "IN",
    "coord": {
      "lon": 77.800003,
      "lat": 23.33333
    }
  },
  {
    "id": 1258967,
    "name": "Raipur",
    "country": "IN",
    "coord": {
      "lon": 78.099998,
      "lat": 30.316669
    }
  },
  {
    "id": 1259154,
    "name": "Pusad",
    "country": "IN",
    "coord": {
      "lon": 77.583328,
      "lat": 19.9
    }
  },
  {
    "id": 1259243,
    "name": "Punalur",
    "country": "IN",
    "coord": {
      "lon": 76.933327,
      "lat": 9
    }
  },
  {
    "id": 1259263,
    "name": "Puliyangudi",
    "country": "IN",
    "coord": {
      "lon": 77.416672,
      "lat": 9.16667
    }
  },
  {
    "id": 1259508,
    "name": "Pithapuram",
    "country": "IN",
    "coord": {
      "lon": 82.26667,
      "lat": 17.116671
    }
  },
  {
    "id": 1259535,
    "name": "Piriyapatna",
    "country": "IN",
    "coord": {
      "lon": 76.099167,
      "lat": 12.33972
    }
  },
  {
    "id": 1259552,
    "name": "Pipri",
    "country": "IN",
    "coord": {
      "lon": 75.533333,
      "lat": 19.799999
    }
  },
  {
    "id": 1259608,
    "name": "Pipar",
    "country": "IN",
    "coord": {
      "lon": 73.537781,
      "lat": 26.385559
    }
  },
  {
    "id": 1259693,
    "name": "Pilani",
    "country": "IN",
    "coord": {
      "lon": 75.604103,
      "lat": 28.368401
    }
  },
  {
    "id": 1259701,
    "name": "Pihani",
    "country": "IN",
    "coord": {
      "lon": 80.199997,
      "lat": 27.633329
    }
  },
  {
    "id": 1259879,
    "name": "Periyakulam",
    "country": "IN",
    "coord": {
      "lon": 77.550003,
      "lat": 10.11667
    }
  },
  {
    "id": 1260040,
    "name": "Pattukkottai",
    "country": "IN",
    "coord": {
      "lon": 79.316673,
      "lat": 10.43333
    }
  },
  {
    "id": 1260129,
    "name": "Patharia",
    "country": "IN",
    "coord": {
      "lon": 79.199997,
      "lat": 23.9
    }
  },
  {
    "id": 1260135,
    "name": "Pathardi",
    "country": "IN",
    "coord": {
      "lon": 75.183327,
      "lat": 19.16667
    }
  },
  {
    "id": 1260141,
    "name": "Pathalgaon",
    "country": "IN",
    "coord": {
      "lon": 83.466667,
      "lat": 22.566669
    }
  },
  {
    "id": 1260178,
    "name": "Patamundai",
    "country": "IN",
    "coord": {
      "lon": 86.566673,
      "lat": 20.566669
    }
  },
  {
    "id": 1260421,
    "name": "Paonta Sahib",
    "country": "IN",
    "coord": {
      "lon": 77.616669,
      "lat": 30.450001
    }
  },
  {
    "id": 1260527,
    "name": "Pandua",
    "country": "IN",
    "coord": {
      "lon": 88.283333,
      "lat": 23.08333
    }
  },
  {
    "id": 1260612,
    "name": "Panagar",
    "country": "IN",
    "coord": {
      "lon": 79.98333,
      "lat": 23.299999
    }
  },
  {
    "id": 1260718,
    "name": "Pali",
    "country": "IN",
    "coord": {
      "lon": 81.050003,
      "lat": 23.35
    }
  },
  {
    "id": 1261012,
    "name": "Osmanabad",
    "country": "IN",
    "coord": {
      "lon": 76.050003,
      "lat": 18.16667
    }
  },
  {
    "id": 1261110,
    "name": "Nuzvid",
    "country": "IN",
    "coord": {
      "lon": 80.849998,
      "lat": 16.783331
    }
  },
  {
    "id": 1261205,
    "name": "Nongstoin",
    "country": "IN",
    "coord": {
      "lon": 91.26667,
      "lat": 25.51667
    }
  },
  {
    "id": 1261342,
    "name": "Neem ka Thana",
    "country": "IN",
    "coord": {
      "lon": 75.800003,
      "lat": 27.73333
    }
  },
  {
    "id": 1261369,
    "name": "Nimbahera",
    "country": "IN",
    "coord": {
      "lon": 74.683327,
      "lat": 24.616671
    }
  },
  {
    "id": 1261539,
    "name": "Nelamangala",
    "country": "IN",
    "coord": {
      "lon": 77.389999,
      "lat": 13.10222
    }
  },
  {
    "id": 1261667,
    "name": "Navalgund",
    "country": "IN",
    "coord": {
      "lon": 75.366669,
      "lat": 15.56667
    }
  },
  {
    "id": 1261705,
    "name": "Nattam",
    "country": "IN",
    "coord": {
      "lon": 78.23333,
      "lat": 10.23333
    }
  },
  {
    "id": 6542104,
    "name": "Misterbianco",
    "country": "IT",
    "coord": {
      "lon": 14.95377,
      "lat": 37.53405
    }
  },
  {
    "id": 6542331,
    "name": "Tremestieri Etneo",
    "country": "IT",
    "coord": {
      "lon": 15.07089,
      "lat": 37.581249
    }
  },
  {
    "id": 250199,
    "name": "Muḩāfaz̧at aţ Ţafīlah",
    "country": "JO",
    "coord": {
      "lon": 35.583328,
      "lat": 30.75
    }
  },
  {
    "id": 250420,
    "name": "Anjarah",
    "country": "JO",
    "coord": {
      "lon": 35.756531,
      "lat": 32.306301
    }
  },
  {
    "id": 1848382,
    "name": "Youkaichi",
    "country": "JP",
    "coord": {
      "lon": 136.197678,
      "lat": 35.116261
    }
  },
  {
    "id": 1849154,
    "name": "Ushibuka",
    "country": "JP",
    "coord": {
      "lon": 130.022781,
      "lat": 32.190559
    }
  },
  {
    "id": 1851357,
    "name": "Suzaka",
    "country": "JP",
    "coord": {
      "lon": 138.316666,
      "lat": 36.650002
    }
  },
  {
    "id": 1851390,
    "name": "Susaki",
    "country": "JP",
    "coord": {
      "lon": 133.283325,
      "lat": 33.366669
    }
  },
  {
    "id": 1851542,
    "name": "Sueyoshi",
    "country": "JP",
    "coord": {
      "lon": 131.016663,
      "lat": 31.65
    }
  },
  {
    "id": 1852102,
    "name": "Shinichi",
    "country": "JP",
    "coord": {
      "lon": 133.266663,
      "lat": 34.549999
    }
  },
  {
    "id": 1854028,
    "name": "Ono",
    "country": "JP",
    "coord": {
      "lon": 132.266663,
      "lat": 34.283329
    }
  },
  {
    "id": 1862302,
    "name": "Hofu",
    "country": "JP",
    "coord": {
      "lon": 131.566666,
      "lat": 34.049999
    }
  },
  {
    "id": 1863426,
    "name": "Haebaru",
    "country": "JP",
    "coord": {
      "lon": 127.871941,
      "lat": 26.336941
    }
  },
  {
    "id": 1873172,
    "name": "Ongjin",
    "country": "KP",
    "coord": {
      "lon": 125.361938,
      "lat": 37.934719
    }
  },
  {
    "id": 1875632,
    "name": "Kosan",
    "country": "KP",
    "coord": {
      "lon": 127.41806,
      "lat": 38.855831
    }
  },
  {
    "id": 1877615,
    "name": "Haeju",
    "country": "KP",
    "coord": {
      "lon": 125.714722,
      "lat": 38.040562
    }
  },
  {
    "id": 2054927,
    "name": "Nasŏn-si",
    "country": "KP",
    "coord": {
      "lon": 130.366394,
      "lat": 42.336109
    }
  },
  {
    "id": 1832257,
    "name": "Neietsu",
    "country": "KR",
    "coord": {
      "lon": 128.468216,
      "lat": 37.184471
    }
  },
  {
    "id": 1832501,
    "name": "Reiko",
    "country": "KR",
    "coord": {
      "lon": 126.509438,
      "lat": 35.275002
    }
  },
  {
    "id": 1832743,
    "name": "Yeoju",
    "country": "KR",
    "coord": {
      "lon": 127.633888,
      "lat": 37.29583
    }
  },
  {
    "id": 1832909,
    "name": "Yanggu",
    "country": "KR",
    "coord": {
      "lon": 127.989441,
      "lat": 38.105831
    }
  },
  {
    "id": 1840886,
    "name": "Mungyeong",
    "country": "KR",
    "coord": {
      "lon": 128.199463,
      "lat": 36.594582
    }
  },
  {
    "id": 1841976,
    "name": "Kurye",
    "country": "KR",
    "coord": {
      "lon": 127.464439,
      "lat": 35.209438
    }
  },
  {
    "id": 1845519,
    "name": "Cheongsong gun",
    "country": "KR",
    "coord": {
      "lon": 129.057007,
      "lat": 36.43351
    }
  },
  {
    "id": 1846095,
    "name": "Chinchon",
    "country": "KR",
    "coord": {
      "lon": 127.443329,
      "lat": 36.85667
    }
  },
  {
    "id": 1925943,
    "name": "Hwawon",
    "country": "KR",
    "coord": {
      "lon": 128.500824,
      "lat": 35.80167
    }
  },
  {
    "id": 285728,
    "name": "Ar Riqqah",
    "country": "KW",
    "coord": {
      "lon": 48.094719,
      "lat": 29.14583
    }
  },
  {
    "id": 285798,
    "name": "Muḩāfaz̧at Jahrā’",
    "country": "KW",
    "coord": {
      "lon": 47.666672,
      "lat": 29.33333
    }
  },
  {
    "id": 609123,
    "name": "Qulsary",
    "country": "KZ",
    "coord": {
      "lon": 54.019779,
      "lat": 46.953072
    }
  },
  {
    "id": 610445,
    "name": "Balyqshy",
    "country": "KZ",
    "coord": {
      "lon": 51.866669,
      "lat": 47.066669
    }
  },
  {
    "id": 1521379,
    "name": "Lenger",
    "country": "KZ",
    "coord": {
      "lon": 69.883926,
      "lat": 42.18301
    }
  },
  {
    "id": 1524245,
    "name": "Georgievka",
    "country": "KZ",
    "coord": {
      "lon": 81.576111,
      "lat": 49.33139
    }
  },
  {
    "id": 1654491,
    "name": "Khouèng Oudômxai",
    "country": "LA",
    "coord": {
      "lon": 101.5,
      "lat": 20.16667
    }
  },
  {
    "id": 1235846,
    "name": "Matara",
    "country": "LK",
    "coord": {
      "lon": 80.535278,
      "lat": 5.94851
    }
  },
  {
    "id": 1241964,
    "name": "Kalutara",
    "country": "LK",
    "coord": {
      "lon": 79.959297,
      "lat": 6.5831
    }
  },
  {
    "id": 2273312,
    "name": "Voinjama",
    "country": "LR",
    "coord": {
      "lon": -9.74778,
      "lat": 8.42194
    }
  },
  {
    "id": 2208655,
    "name": "Zaltan",
    "country": "LY",
    "coord": {
      "lon": 11.86647,
      "lat": 32.94701
    }
  },
  {
    "id": 2214845,
    "name": "Sha‘bīyat Mişrātah",
    "country": "LY",
    "coord": {
      "lon": 14.41667,
      "lat": 31.41667
    }
  },
  {
    "id": 7602693,
    "name": "Sha‘bīyat Wādī al Ḩayāt",
    "country": "LY",
    "coord": {
      "lon": 12.85,
      "lat": 26.549999
    }
  },
  {
    "id": 3692667,
    "name": "Zana",
    "country": "PE",
    "coord": {
      "lon": -79.584167,
      "lat": -6.92222
    }
  },
  {
    "id": 3693057,
    "name": "Querecotillo",
    "country": "PE",
    "coord": {
      "lon": -80.645561,
      "lat": -4.83778
    }
  },
  {
    "id": 3693645,
    "name": "Picsi",
    "country": "PE",
    "coord": {
      "lon": -79.769722,
      "lat": -6.71778
    }
  },
  {
    "id": 3694112,
    "name": "Paita",
    "country": "PE",
    "coord": {
      "lon": -81.114441,
      "lat": -5.08917
    }
  },
  {
    "id": 3695754,
    "name": "Lambayeque",
    "country": "PE",
    "coord": {
      "lon": -79.906113,
      "lat": -6.70111
    }
  },
  {
    "id": 3698390,
    "name": "Chepen",
    "country": "PE",
    "coord": {
      "lon": -79.449997,
      "lat": -7.21667
    }
  },
  {
    "id": 3925476,
    "name": "Yunguyo",
    "country": "PE",
    "coord": {
      "lon": -69.083328,
      "lat": -16.25
    }
  },
  {
    "id": 3927942,
    "name": "Tambopata",
    "country": "PE",
    "coord": {
      "lon": -69.183327,
      "lat": -12.73333
    }
  },
  {
    "id": 3935572,
    "name": "Mala",
    "country": "PE",
    "coord": {
      "lon": -76.630829,
      "lat": -12.65806
    }
  },
  {
    "id": 3946985,
    "name": "Ayaviri",
    "country": "PE",
    "coord": {
      "lon": -70.58889,
      "lat": -14.88639
    }
  },
  {
    "id": 2089470,
    "name": "Bougainville",
    "country": "PG",
    "coord": {
      "lon": 155,
      "lat": -6
    }
  },
  {
    "id": 2100633,
    "name": "Arawa",
    "country": "PG",
    "coord": {
      "lon": 155.536743,
      "lat": -6.21319
    }
  },
  {
    "id": 1707667,
    "name": "Province of Lanao del Sur",
    "country": "PH",
    "coord": {
      "lon": 124.333328,
      "lat": 7.91667
    }
  },
  {
    "id": 1731616,
    "name": "Province of Albay",
    "country": "PH",
    "coord": {
      "lon": 123.550003,
      "lat": 13.21667
    }
  },
  {
    "id": 1682479,
    "name": "Teresa",
    "country": "PH",
    "coord": {
      "lon": 121.23333,
      "lat": 14.58333
    }
  },
  {
    "id": 1683340,
    "name": "Tanauan",
    "country": "PH",
    "coord": {
      "lon": 121.14975,
      "lat": 14.08627
    }
  },
  {
    "id": 1684016,
    "name": "Talavera",
    "country": "PH",
    "coord": {
      "lon": 120.919197,
      "lat": 15.5883
    }
  },
  {
    "id": 1684139,
    "name": "Talacogon",
    "country": "PH",
    "coord": {
      "lon": 125.800003,
      "lat": 8.41667
    }
  },
  {
    "id": 1684137,
    "name": "Talacogon",
    "country": "PH",
    "coord": {
      "lon": 125.784172,
      "lat": 8.45611
    }
  },
  {
    "id": 1685230,
    "name": "Surallah",
    "country": "PH",
    "coord": {
      "lon": 124.73333,
      "lat": 6.36667
    }
  },
  {
    "id": 1685876,
    "name": "Solano",
    "country": "PH",
    "coord": {
      "lon": 121.199997,
      "lat": 16.533331
    }
  },
  {
    "id": 1686549,
    "name": "Silang",
    "country": "PH",
    "coord": {
      "lon": 121,
      "lat": 14.2
    }
  },
  {
    "id": 7532438,
    "name": "Świętochłowice",
    "country": "PL",
    "coord": {
      "lon": 18.9102,
      "lat": 50.297901
    }
  },
  {
    "id": 7530929,
    "name": "Powiat sierpecki",
    "country": "PL",
    "coord": {
      "lon": 19.71216,
      "lat": 52.83353
    }
  },
  {
    "id": 7531863,
    "name": "Jastrzębie-Zdrój",
    "country": "PL",
    "coord": {
      "lon": 18.6005,
      "lat": 49.960602
    }
  },
  {
    "id": 7531533,
    "name": "Gostynin",
    "country": "PL",
    "coord": {
      "lon": 19.46258,
      "lat": 52.42424
    }
  },
  {
    "id": 8012295,
    "name": "Custóias",
    "country": "PT",
    "coord": {
      "lon": -7.31505,
      "lat": 41.107601
    }
  },
  {
    "id": 8011806,
    "name": "Coimbra (Sé Nova)",
    "country": "PT",
    "coord": {
      "lon": -8.41645,
      "lat": 40.206322
    }
  },
  {
    "id": 8014132,
    "name": "Baguim do Monte (Rio Tinto)",
    "country": "PT",
    "coord": {
      "lon": -8.5346,
      "lat": 41.190311
    }
  },
  {
    "id": 2742506,
    "name": "Baguim do Monte",
    "country": "PT",
    "coord": {
      "lon": -8.54133,
      "lat": 41.19392
    }
  },
  {
    "id": 8010756,
    "name": "Vera Cruz",
    "country": "PT",
    "coord": {
      "lon": -8.67914,
      "lat": 40.678631
    }
  },
  {
    "id": 790698,
    "name": "Glogovac",
    "country": "RS",
    "coord": {
      "lon": 21.316389,
      "lat": 44.039719
    }
  },
  {
    "id": 378493,
    "name": "Ar Rahad",
    "country": "SD",
    "coord": {
      "lon": 30.65,
      "lat": 12.71667
    }
  },
  {
    "id": 2426370,
    "name": "Oum Hadjer",
    "country": "TD",
    "coord": {
      "lon": 19.6966,
      "lat": 13.2954
    }
  },
  {
    "id": 2427336,
    "name": "Moussoro",
    "country": "TD",
    "coord": {
      "lon": 16.49007,
      "lat": 13.64084
    }
  },
  {
    "id": 174968,
    "name": "Aygavan",
    "country": "AM",
    "coord": {
      "lon": 44.669842,
      "lat": 39.87326
    }
  },
  {
    "id": 616053,
    "name": "Yerazgavors",
    "country": "AM",
    "coord": {
      "lon": 43.75,
      "lat": 40.700001
    }
  },
  {
    "id": 616071,
    "name": "Voskevaz",
    "country": "AM",
    "coord": {
      "lon": 44.29509,
      "lat": 40.276779
    }
  },
  {
    "id": 616097,
    "name": "Verin Dvin",
    "country": "AM",
    "coord": {
      "lon": 44.590382,
      "lat": 40.024342
    }
  },
  {
    "id": 616119,
    "name": "Vaghashen",
    "country": "AM",
    "coord": {
      "lon": 45.328789,
      "lat": 40.13578
    }
  },
  {
    "id": 616120,
    "name": "Vahagni",
    "country": "AM",
    "coord": {
      "lon": 44.60873,
      "lat": 40.906979
    }
  },
  {
    "id": 616464,
    "name": "Lukashin",
    "country": "AM",
    "coord": {
      "lon": 44.018608,
      "lat": 40.175831
    }
  },
  {
    "id": 616492,
    "name": "Lanjaghbyur",
    "country": "AM",
    "coord": {
      "lon": 45.140381,
      "lat": 40.271461
    }
  },
  {
    "id": 616523,
    "name": "Kosh",
    "country": "AM",
    "coord": {
      "lon": 44.155842,
      "lat": 40.299992
    }
  },
  {
    "id": 616572,
    "name": "Karchaghbyur",
    "country": "AM",
    "coord": {
      "lon": 45.57785,
      "lat": 40.170479
    }
  },
  {
    "id": 616576,
    "name": "Karanlukh",
    "country": "AM",
    "coord": {
      "lon": 45.289719,
      "lat": 40.104439
    }
  },
  {
    "id": 616668,
    "name": "Getazat",
    "country": "AM",
    "coord": {
      "lon": 44.56369,
      "lat": 40.038441
    }
  },
  {
    "id": 616763,
    "name": "Darpas",
    "country": "AM",
    "coord": {
      "lon": 44.424938,
      "lat": 40.836739
    }
  },
  {
    "id": 616789,
    "name": "Bjni",
    "country": "AM",
    "coord": {
      "lon": 44.648121,
      "lat": 40.455898
    }
  },
  {
    "id": 616791,
    "name": "Byurakan",
    "country": "AM",
    "coord": {
      "lon": 44.271381,
      "lat": 40.338001
    }
  },
  {
    "id": 616806,
    "name": "Bazum",
    "country": "AM",
    "coord": {
      "lon": 44.439781,
      "lat": 40.86763
    }
  },
  {
    "id": 616828,
    "name": "Bagratashen",
    "country": "AM",
    "coord": {
      "lon": 44.817371,
      "lat": 41.24358
    }
  },
  {
    "id": 616853,
    "name": "Aknalich",
    "country": "AM",
    "coord": {
      "lon": 44.149799,
      "lat": 40.14315
    }
  },
  {
    "id": 616879,
    "name": "Ashnak",
    "country": "AM",
    "coord": {
      "lon": 43.91848,
      "lat": 40.328869
    }
  },
  {
    "id": 616921,
    "name": "Arevashat",
    "country": "AM",
    "coord": {
      "lon": 44.370682,
      "lat": 40.142502
    }
  },
  {
    "id": 616954,
    "name": "Apaga",
    "country": "AM",
    "coord": {
      "lon": 44.251572,
      "lat": 40.096661
    }
  },
  {
    "id": 616955,
    "name": "Anushavan",
    "country": "AM",
    "coord": {
      "lon": 43.977558,
      "lat": 40.650131
    }
  },
  {
    "id": 616981,
    "name": "Akunk",
    "country": "AM",
    "coord": {
      "lon": 44.684811,
      "lat": 40.268829
    }
  },
  {
    "id": 617003,
    "name": "Aghavnadzor",
    "country": "AM",
    "coord": {
      "lon": 44.695808,
      "lat": 40.581951
    }
  },
  {
    "id": 617027,
    "name": "Abovyan",
    "country": "AM",
    "coord": {
      "lon": 44.547421,
      "lat": 40.048512
    }
  },
  {
    "id": 823755,
    "name": "Artsvaberd",
    "country": "AM",
    "coord": {
      "lon": 45.471111,
      "lat": 40.833611
    }
  },
  {
    "id": 823791,
    "name": "Nor Yerznka",
    "country": "AM",
    "coord": {
      "lon": 44.404831,
      "lat": 40.31356
    }
  },
  {
    "id": 823805,
    "name": "Lenughi",
    "country": "AM",
    "coord": {
      "lon": 43.96484,
      "lat": 40.125622
    }
  },
  {
    "id": 823808,
    "name": "Gay",
    "country": "AM",
    "coord": {
      "lon": 44.305561,
      "lat": 40.083889
    }
  },
  {
    "id": 866137,
    "name": "Mrgavet",
    "country": "AM",
    "coord": {
      "lon": 44.482521,
      "lat": 40.02779
    }
  },
  {
    "id": 866138,
    "name": "Arevabuyr",
    "country": "AM",
    "coord": {
      "lon": 44.469341,
      "lat": 40.037121
    }
  },
  {
    "id": 2239076,
    "name": "Ndalatando",
    "country": "AO",
    "coord": {
      "lon": 14.91162,
      "lat": -9.29782
    }
  },
  {
    "id": 3427454,
    "name": "Villa del Rosario",
    "country": "AR",
    "coord": {
      "lon": -57.912571,
      "lat": -30.79567
    }
  },
  {
    "id": 3429567,
    "name": "Riacho Eh-Eh",
    "country": "AR",
    "coord": {
      "lon": -58.2775,
      "lat": -25.362089
    }
  },
  {
    "id": 3429801,
    "name": "Puerto Bermejo",
    "country": "AR",
    "coord": {
      "lon": -58.505379,
      "lat": -26.93173
    }
  },
  {
    "id": 3430178,
    "name": "Panambi",
    "country": "AR",
    "coord": {
      "lon": -54.915138,
      "lat": -27.7237
    }
  },
  {
    "id": 3435525,
    "name": "Cerro Cora",
    "country": "AR",
    "coord": {
      "lon": -55.608959,
      "lat": -27.5131
    }
  },
  {
    "id": 3435765,
    "name": "Campo Ramon",
    "country": "AR",
    "coord": {
      "lon": -55.019009,
      "lat": -27.461081
    }
  },
  {
    "id": 3834403,
    "name": "Tilcara",
    "country": "AR",
    "coord": {
      "lon": -65.350899,
      "lat": -23.57757
    }
  },
  {
    "id": 3834814,
    "name": "Tafi del Valle",
    "country": "AR",
    "coord": {
      "lon": -65.709831,
      "lat": -26.852751
    }
  },
  {
    "id": 3834843,
    "name": "Taco Pozo",
    "country": "AR",
    "coord": {
      "lon": -63.283329,
      "lat": -25.616671
    }
  },
  {
    "id": 3835866,
    "name": "Santiago Temple",
    "country": "AR",
    "coord": {
      "lon": -63.418209,
      "lat": -31.38731
    }
  },
  {
    "id": 3837624,
    "name": "San Francisco del Monte de Oro",
    "country": "AR",
    "coord": {
      "lon": -66.125389,
      "lat": -32.598251
    }
  },
  {
    "id": 3837823,
    "name": "San Cristobal",
    "country": "AR",
    "coord": {
      "lon": -61.23724,
      "lat": -30.31053
    }
  },
  {
    "id": 3843436,
    "name": "Napenay",
    "country": "AR",
    "coord": {
      "lon": -60.616669,
      "lat": -26.73333
    }
  },
  {
    "id": 3843504,
    "name": "Mutquin",
    "country": "AR",
    "coord": {
      "lon": -66.142532,
      "lat": -28.321039
    }
  },
  {
    "id": 3845490,
    "name": "Los Varela",
    "country": "AR",
    "coord": {
      "lon": -65.865501,
      "lat": -27.954821
    }
  },
  {
    "id": 3860319,
    "name": "Contraalmirante Cordero",
    "country": "AR",
    "coord": {
      "lon": -68.15284,
      "lat": -38.724232
    }
  },
  {
    "id": 3860419,
    "name": "Concepcion del Bermejo",
    "country": "AR",
    "coord": {
      "lon": -60.946171,
      "lat": -26.59926
    }
  },
  {
    "id": 3860757,
    "name": "Colonia La Tordilla",
    "country": "AR",
    "coord": {
      "lon": -63.06134,
      "lat": -31.237459
    }
  },
  {
    "id": 5881165,
    "name": "Tau",
    "country": "AS",
    "coord": {
      "lon": -169.514435,
      "lat": -14.23361
    }
  },
  {
    "id": 7267965,
    "name": "Faleasao County",
    "country": "AS",
    "coord": {
      "lon": -169.478195,
      "lat": -14.22079
    }
  },
  {
    "id": 2760380,
    "name": "Millstatt",
    "country": "AT",
    "coord": {
      "lon": 13.58056,
      "lat": 46.804169
    }
  },
  {
    "id": 2760523,
    "name": "Zirl",
    "country": "AT",
    "coord": {
      "lon": 11.23333,
      "lat": 47.283329
    }
  },
  {
    "id": 2760704,
    "name": "Zederhaus",
    "country": "AT",
    "coord": {
      "lon": 13.5,
      "lat": 47.150002
    }
  },
  {
    "id": 2760797,
    "name": "Wurmla",
    "country": "AT",
    "coord": {
      "lon": 15.86031,
      "lat": 48.254971
    }
  },
  {
    "id": 2760814,
    "name": "Wundschuh",
    "country": "AT",
    "coord": {
      "lon": 15.45111,
      "lat": 46.926392
    }
  },
  {
    "id": 2760839,
    "name": "Worth an der Lafnitz",
    "country": "AT",
    "coord": {
      "lon": 16.066669,
      "lat": 47.200001
    }
  },
  {
    "id": 2760906,
    "name": "Wolfsberg im Schwarzautal",
    "country": "AT",
    "coord": {
      "lon": 15.65889,
      "lat": 46.843891
    }
  },
  {
    "id": 2761615,
    "name": "Weissenbach an der Triesting",
    "country": "AT",
    "coord": {
      "lon": 16.039351,
      "lat": 47.982109
    }
  },
  {
    "id": 2761689,
    "name": "Weingraben",
    "country": "AT",
    "coord": {
      "lon": 16.366671,
      "lat": 47.51667
    }
  },
  {
    "id": 2768118,
    "name": "Politischer Bezirk Radkersburg",
    "country": "AT",
    "coord": {
      "lon": 15.85,
      "lat": 46.75
    }
  },
  {
    "id": 2761697,
    "name": "Weinburg am Sassbach",
    "country": "AT",
    "coord": {
      "lon": 15.72111,
      "lat": 46.753609
    }
  },
  {
    "id": 2761772,
    "name": "Weichselbaum",
    "country": "AT",
    "coord": {
      "lon": 16.1875,
      "lat": 46.942501
    }
  },
  {
    "id": 7873628,
    "name": "Wattenberg",
    "country": "AT",
    "coord": {
      "lon": 11.62618,
      "lat": 47.206909
    }
  },
  {
    "id": 7873700,
    "name": "Wängle",
    "country": "AT",
    "coord": {
      "lon": 10.66587,
      "lat": 47.487701
    }
  },
  {
    "id": 2763118,
    "name": "Unterauersbach",
    "country": "AT",
    "coord": {
      "lon": 15.77028,
      "lat": 46.865559
    }
  },
  {
    "id": 7873332,
    "name": "Unken",
    "country": "AT",
    "coord": {
      "lon": 12.68151,
      "lat": 47.63969
    }
  },
  {
    "id": 7873305,
    "name": "Thalgau",
    "country": "AT",
    "coord": {
      "lon": 13.25171,
      "lat": 47.848572
    }
  },
  {
    "id": 7872827,
    "name": "Strengberg",
    "country": "AT",
    "coord": {
      "lon": 14.64814,
      "lat": 48.14954
    }
  },
  {
    "id": 7873697,
    "name": "Steeg",
    "country": "AT",
    "coord": {
      "lon": 10.24982,
      "lat": 47.23756
    }
  },
  {
    "id": 2764625,
    "name": "Stattegg",
    "country": "AT",
    "coord": {
      "lon": 15.41667,
      "lat": 47.133331
    }
  },
  {
    "id": 7872462,
    "name": "Spital am Semmering",
    "country": "AT",
    "coord": {
      "lon": 15.78324,
      "lat": 47.605782
    }
  },
  {
    "id": 7871793,
    "name": "Spillern",
    "country": "AT",
    "coord": {
      "lon": 16.264481,
      "lat": 48.372162
    }
  },
  {
    "id": 2764797,
    "name": "Spillern",
    "country": "AT",
    "coord": {
      "lon": 16.25,
      "lat": 48.383331
    }
  },
  {
    "id": 2764806,
    "name": "Spielfeld",
    "country": "AT",
    "coord": {
      "lon": 15.63722,
      "lat": 46.705559
    }
  },
  {
    "id": 7873657,
    "name": "Söll",
    "country": "AT",
    "coord": {
      "lon": 12.20422,
      "lat": 47.50407
    }
  },
  {
    "id": 2764988,
    "name": "Sittersdorf",
    "country": "AT",
    "coord": {
      "lon": 14.60583,
      "lat": 46.544441
    }
  },
  {
    "id": 7872710,
    "name": "Sieggraben",
    "country": "AT",
    "coord": {
      "lon": 16.387939,
      "lat": 47.65868
    }
  },
  {
    "id": 7873440,
    "name": "Siegersdorf bei Herberstein",
    "country": "AT",
    "coord": {
      "lon": 15.7932,
      "lat": 47.21376
    }
  },
  {
    "id": 7872367,
    "name": "Sebersdorf",
    "country": "AT",
    "coord": {
      "lon": 16.00522,
      "lat": 47.191299
    }
  },
  {
    "id": 2765338,
    "name": "Sebersdorf",
    "country": "AT",
    "coord": {
      "lon": 15.98333,
      "lat": 47.200001
    }
  },
  {
    "id": 7872572,
    "name": "Schwoich",
    "country": "AT",
    "coord": {
      "lon": 12.15178,
      "lat": 47.53714
    }
  },
  {
    "id": 7873642,
    "name": "Schwendt",
    "country": "AT",
    "coord": {
      "lon": 12.39171,
      "lat": 47.614689
    }
  },
  {
    "id": 7872892,
    "name": "Schrattenthal",
    "country": "AT",
    "coord": {
      "lon": 15.89765,
      "lat": 48.740009
    }
  },
  {
    "id": 2766084,
    "name": "Scheffau am Wilden Kaiser",
    "country": "AT",
    "coord": {
      "lon": 12.25139,
      "lat": 47.52943
    }
  },
  {
    "id": 2766143,
    "name": "Scharndorf",
    "country": "AT",
    "coord": {
      "lon": 16.783331,
      "lat": 48.083328
    }
  },
  {
    "id": 7872755,
    "name": "Schandorf",
    "country": "AT",
    "coord": {
      "lon": 16.42375,
      "lat": 47.23402
    }
  },
  {
    "id": 7873594,
    "name": "Sautens",
    "country": "AT",
    "coord": {
      "lon": 10.85456,
      "lat": 47.201881
    }
  },
  {
    "id": 2766357,
    "name": "Sankt Veit an der Golsen",
    "country": "AT",
    "coord": {
      "lon": 15.66942,
      "lat": 48.043201
    }
  },
  {
    "id": 2766372,
    "name": "Sankt Ulrich bei Steyr",
    "country": "AT",
    "coord": {
      "lon": 14.42419,
      "lat": 48.021851
    }
  },
  {
    "id": 7872430,
    "name": "Sankt Stefan ob Leoben",
    "country": "AT",
    "coord": {
      "lon": 15.00455,
      "lat": 47.295929
    }
  },
  {
    "id": 7873527,
    "name": "Sankt Peter am Kammersberg",
    "country": "AT",
    "coord": {
      "lon": 14.18306,
      "lat": 47.201809
    }
  },
  {
    "id": 2766444,
    "name": "Sankt Peter am Kammersberg",
    "country": "AT",
    "coord": {
      "lon": 14.18333,
      "lat": 47.183331
    }
  },
  {
    "id": 7872343,
    "name": "Sankt Oswald bei Plankenwarth",
    "country": "AT",
    "coord": {
      "lon": 15.29907,
      "lat": 47.088921
    }
  },
  {
    "id": 7872418,
    "name": "Sankt Nikolai ob Draßling",
    "country": "AT",
    "coord": {
      "lon": 15.66296,
      "lat": 46.801819
    }
  },
  {
    "id": 7872417,
    "name": "Sankt Nikolai im Sausal",
    "country": "AT",
    "coord": {
      "lon": 15.44996,
      "lat": 46.823872
    }
  },
  {
    "id": 7872428,
    "name": "Sankt Michael in Obersteiermark",
    "country": "AT",
    "coord": {
      "lon": 15.05883,
      "lat": 47.3125
    }
  },
  {
    "id": 7873322,
    "name": "Sankt Michael im Lungau",
    "country": "AT",
    "coord": {
      "lon": 13.61442,
      "lat": 47.106091
    }
  },
  {
    "id": 7872697,
    "name": "Sankt Michael im Burgenland",
    "country": "AT",
    "coord": {
      "lon": 16.26557,
      "lat": 47.12516
    }
  },
  {
    "id": 7872272,
    "name": "Sankt Martin im Sulmtal",
    "country": "AT",
    "coord": {
      "lon": 15.29627,
      "lat": 46.763111
    }
  },
  {
    "id": 7872704,
    "name": "Sankt Martin an der Raab",
    "country": "AT",
    "coord": {
      "lon": 16.122549,
      "lat": 46.90802
    }
  },
  {
    "id": 7872450,
    "name": "Sankt Martin am Grimming",
    "country": "AT",
    "coord": {
      "lon": 13.96173,
      "lat": 47.491119
    }
  },
  {
    "id": 2766551,
    "name": "Sankt Margarethen bei Knittelfeld",
    "country": "AT",
    "coord": {
      "lon": 14.86667,
      "lat": 47.216671
    }
  },
  {
    "id": 2766563,
    "name": "Sankt Marein bei Neumarkt",
    "country": "AT",
    "coord": {
      "lon": 14.41667,
      "lat": 47.066669
    }
  },
  {
    "id": 7872397,
    "name": "Sankt Marein bei Knittelfeld",
    "country": "AT",
    "coord": {
      "lon": 14.84398,
      "lat": 47.315399
    }
  },
  {
    "id": 7873412,
    "name": "Sankt Marein bei Graz",
    "country": "AT",
    "coord": {
      "lon": 15.69616,
      "lat": 47.01886
    }
  },
  {
    "id": 7872415,
    "name": "Sankt Georgen an der Stiefing",
    "country": "AT",
    "coord": {
      "lon": 15.59152,
      "lat": 46.878319
    }
  },
  {
    "id": 2766699,
    "name": "Sankt Georgen an der Stiefing",
    "country": "AT",
    "coord": {
      "lon": 15.57972,
      "lat": 46.873329
    }
  },
  {
    "id": 2766725,
    "name": "Sankt Gallen",
    "country": "AT",
    "coord": {
      "lon": 14.6,
      "lat": 47.683331
    }
  },
  {
    "id": 7872997,
    "name": "Sankt Corona am Wechsel",
    "country": "AT",
    "coord": {
      "lon": 16.000549,
      "lat": 47.577549
    }
  },
  {
    "id": 2766757,
    "name": "Sankt Anton am Arlberg",
    "country": "AT",
    "coord": {
      "lon": 10.26372,
      "lat": 47.127499
    }
  },
  {
    "id": 2766905,
    "name": "Sachsenburg",
    "country": "AT",
    "coord": {
      "lon": 13.355,
      "lat": 46.82917
    }
  },
  {
    "id": 2767005,
    "name": "Ruden",
    "country": "AT",
    "coord": {
      "lon": 14.77639,
      "lat": 46.658329
    }
  },
  {
    "id": 2767074,
    "name": "Rothis",
    "country": "AT",
    "coord": {
      "lon": 9.65484,
      "lat": 47.29332
    }
  },
  {
    "id": 7873060,
    "name": "Rohr im Gebirge",
    "country": "AT",
    "coord": {
      "lon": 15.73702,
      "lat": 47.885422
    }
  },
  {
    "id": 7872901,
    "name": "Röhrenbach",
    "country": "AT",
    "coord": {
      "lon": 15.49357,
      "lat": 48.662849
    }
  },
  {
    "id": 2767681,
    "name": "Reisenberg",
    "country": "AT",
    "coord": {
      "lon": 16.51667,
      "lat": 48
    }
  },
  {
    "id": 7873032,
    "name": "Reinsberg",
    "country": "AT",
    "coord": {
      "lon": 15.08148,
      "lat": 47.992119
    }
  },
  {
    "id": 2767696,
    "name": "Reinsberg",
    "country": "AT",
    "coord": {
      "lon": 15.07067,
      "lat": 47.985668
    }
  },
  {
    "id": 2767907,
    "name": "Ratschendorf",
    "country": "AT",
    "coord": {
      "lon": 15.81583,
      "lat": 46.742222
    }
  },
  {
    "id": 2767987,
    "name": "Randegg",
    "country": "AT",
    "coord": {
      "lon": 14.97334,
      "lat": 48.011978
    }
  },
  {
    "id": 2768007,
    "name": "Ramsau im Zillertal",
    "country": "AT",
    "coord": {
      "lon": 11.87545,
      "lat": 47.203831
    }
  },
  {
    "id": 7872307,
    "name": "Raabau",
    "country": "AT",
    "coord": {
      "lon": 15.91384,
      "lat": 46.962189
    }
  },
  {
    "id": 7872889,
    "name": "Pulkau",
    "country": "AT",
    "coord": {
      "lon": 15.86013,
      "lat": 48.709671
    }
  },
  {
    "id": 2768263,
    "name": "Puhret",
    "country": "AT",
    "coord": {
      "lon": 13.71667,
      "lat": 48.033329
    }
  },
  {
    "id": 7873575,
    "name": "Puch bei Weiz",
    "country": "AT",
    "coord": {
      "lon": 15.72771,
      "lat": 47.220139
    }
  },
  {
    "id": 7872200,
    "name": "Puch bei Hallein",
    "country": "AT",
    "coord": {
      "lon": 13.12168,
      "lat": 47.734241
    }
  },
  {
    "id": 7873668,
    "name": "Prutz",
    "country": "AT",
    "coord": {
      "lon": 10.67599,
      "lat": 47.077621
    }
  },
  {
    "id": 2768295,
    "name": "Pruggern",
    "country": "AT",
    "coord": {
      "lon": 13.86667,
      "lat": 47.416672
    }
  },
  {
    "id": 2768316,
    "name": "Prinzersdorf",
    "country": "AT",
    "coord": {
      "lon": 15.51667,
      "lat": 48.200001
    }
  },
  {
    "id": 7871679,
    "name": "Preitenegg",
    "country": "AT",
    "coord": {
      "lon": 14.94735,
      "lat": 46.948711
    }
  },
  {
    "id": 7872765,
    "name": "Poggersdorf",
    "country": "AT",
    "coord": {
      "lon": 14.47562,
      "lat": 46.66243
    }
  },
  {
    "id": 7873666,
    "name": "Pfunds",
    "country": "AT",
    "coord": {
      "lon": 10.58164,
      "lat": 46.948799
    }
  },
  {
    "id": 7872115,
    "name": "Pfarrkirchen im Mühlkreis",
    "country": "AT",
    "coord": {
      "lon": 13.82664,
      "lat": 48.50375
    }
  },
  {
    "id": 7872144,
    "name": "Pfarrkirchen bei Bad Hall",
    "country": "AT",
    "coord": {
      "lon": 14.19189,
      "lat": 48.019562
    }
  },
  {
    "id": 2769344,
    "name": "Ottenschlag im Muhlkreis",
    "country": "AT",
    "coord": {
      "lon": 14.38471,
      "lat": 48.46632
    }
  },
  {
    "id": 7873276,
    "name": "Offenhausen",
    "country": "AT",
    "coord": {
      "lon": 13.84551,
      "lat": 48.153259
    }
  },
  {
    "id": 7873502,
    "name": "Öblarn",
    "country": "AT",
    "coord": {
      "lon": 14.02492,
      "lat": 47.42738
    }
  },
  {
    "id": 7872409,
    "name": "Obervogau",
    "country": "AT",
    "coord": {
      "lon": 15.58618,
      "lat": 46.745682
    }
  },
  {
    "id": 7871655,
    "name": "Obervellach",
    "country": "AT",
    "coord": {
      "lon": 13.19738,
      "lat": 46.93309
    }
  },
  {
    "id": 7872164,
    "name": "Oberndorf bei Schwanenstadt",
    "country": "AT",
    "coord": {
      "lon": 13.75406,
      "lat": 48.0606
    }
  },
  {
    "id": 7873301,
    "name": "Oberndorf bei Salzburg",
    "country": "AT",
    "coord": {
      "lon": 12.94163,
      "lat": 47.940189
    }
  },
  {
    "id": 7871614,
    "name": "Oberloisdorf",
    "country": "AT",
    "coord": {
      "lon": 16.498171,
      "lat": 47.442249
    }
  },
  {
    "id": 7872599,
    "name": "Oberlienz",
    "country": "AT",
    "coord": {
      "lon": 12.70049,
      "lat": 46.850788
    }
  },
  {
    "id": 2769994,
    "name": "Oberkurzheim",
    "country": "AT",
    "coord": {
      "lon": 14.58333,
      "lat": 47.23333
    }
  },
  {
    "id": 7873612,
    "name": "Oberhofen im Inntal",
    "country": "AT",
    "coord": {
      "lon": 11.0973,
      "lat": 47.273251
    }
  },
  {
    "id": 2770041,
    "name": "Oberhofen im Inntal",
    "country": "AT",
    "coord": {
      "lon": 11.08333,
      "lat": 47.299999
    }
  },
  {
    "id": 2770042,
    "name": "Oberhofen am Irrsee",
    "country": "AT",
    "coord": {
      "lon": 13.3,
      "lat": 47.950001
    }
  },
  {
    "id": 7872408,
    "name": "Oberhaag",
    "country": "AT",
    "coord": {
      "lon": 15.35343,
      "lat": 46.679409
    }
  },
  {
    "id": 2770086,
    "name": "Oberhaag",
    "country": "AT",
    "coord": {
      "lon": 15.33202,
      "lat": 46.686901
    }
  },
  {
    "id": 2770472,
    "name": "Nochling",
    "country": "AT",
    "coord": {
      "lon": 14.98123,
      "lat": 48.224331
    }
  },
  {
    "id": 2770482,
    "name": "Niklasdorf",
    "country": "AT",
    "coord": {
      "lon": 15.15,
      "lat": 47.383331
    }
  },
  {
    "id": 7872753,
    "name": "Neustift an der Lafnitz",
    "country": "AT",
    "coord": {
      "lon": 16.03647,
      "lat": 47.362961
    }
  },
  {
    "id": 2770772,
    "name": "Neuhaus am Klausenbach",
    "country": "AT",
    "coord": {
      "lon": 16.028891,
      "lat": 46.87056
    }
  },
  {
    "id": 7871536,
    "name": "Neufeld an der Leitha",
    "country": "AT",
    "coord": {
      "lon": 16.375071,
      "lat": 47.863708
    }
  },
  {
    "id": 2770897,
    "name": "Neckenmarkt",
    "country": "AT",
    "coord": {
      "lon": 16.549999,
      "lat": 47.599998
    }
  },
  {
    "id": 2770910,
    "name": "Nauders",
    "country": "AT",
    "coord": {
      "lon": 10.51667,
      "lat": 46.883331
    }
  },
  {
    "id": 7873691,
    "name": "Namlos",
    "country": "AT",
    "coord": {
      "lon": 10.6651,
      "lat": 47.359879
    }
  },
  {
    "id": 2771207,
    "name": "Mortantsch",
    "country": "AT",
    "coord": {
      "lon": 15.56667,
      "lat": 47.200001
    }
  },
  {
    "id": 7872243,
    "name": "Mittersill",
    "country": "AT",
    "coord": {
      "lon": 12.48588,
      "lat": 47.234741
    }
  },
  {
    "id": 2771533,
    "name": "Mittelberg",
    "country": "AT",
    "coord": {
      "lon": 10.15463,
      "lat": 47.3237
    }
  },
  {
    "id": 7872299,
    "name": "Merkendorf",
    "country": "AT",
    "coord": {
      "lon": 15.9116,
      "lat": 46.850731
    }
  },
  {
    "id": 2771764,
    "name": "Mauterndorf",
    "country": "AT",
    "coord": {
      "lon": 13.67884,
      "lat": 47.13451
    }
  },
  {
    "id": 7873073,
    "name": "Mauerbach",
    "country": "AT",
    "coord": {
      "lon": 16.172501,
      "lat": 48.252949
    }
  },
  {
    "id": 7873609,
    "name": "Matrei am Brenner",
    "country": "AT",
    "coord": {
      "lon": 11.45222,
      "lat": 47.128521
    }
  },
  {
    "id": 7871739,
    "name": "Markgrafneusiedl",
    "country": "AT",
    "coord": {
      "lon": 16.63883,
      "lat": 48.281181
    }
  },
  {
    "id": 7871820,
    "name": "Maria Taferl",
    "country": "AT",
    "coord": {
      "lon": 15.15958,
      "lat": 48.235229
    }
  },
  {
    "id": 2771940,
    "name": "Maria Enzersdorf",
    "country": "AT",
    "coord": {
      "lon": 16.283331,
      "lat": 48.099998
    }
  },
  {
    "id": 2771949,
    "name": "Maria-Anzbach",
    "country": "AT",
    "coord": {
      "lon": 15.93155,
      "lat": 48.190121
    }
  },
  {
    "id": 2772058,
    "name": "Maissau",
    "country": "AT",
    "coord": {
      "lon": 15.81667,
      "lat": 48.566669
    }
  },
  {
    "id": 7872242,
    "name": "Maishofen",
    "country": "AT",
    "coord": {
      "lon": 12.80358,
      "lat": 47.366131
    }
  },
  {
    "id": 7873380,
    "name": "Maierdorf",
    "country": "AT",
    "coord": {
      "lon": 15.85394,
      "lat": 46.902229
    }
  },
  {
    "id": 7873072,
    "name": "Leopoldsdorf",
    "country": "AT",
    "coord": {
      "lon": 16.39854,
      "lat": 48.10788
    }
  },
  {
    "id": 2772645,
    "name": "Leobersdorf",
    "country": "AT",
    "coord": {
      "lon": 16.216511,
      "lat": 47.927959
    }
  },
  {
    "id": 2772653,
    "name": "Lenzing",
    "country": "AT",
    "coord": {
      "lon": 13.60846,
      "lat": 47.973259
    }
  },
  {
    "id": 7872618,
    "name": "Lechaschau",
    "country": "AT",
    "coord": {
      "lon": 10.69546,
      "lat": 47.497478
    }
  },
  {
    "id": 2772796,
    "name": "Lechaschau",
    "country": "AT",
    "coord": {
      "lon": 10.7,
      "lat": 47.48333
    }
  },
  {
    "id": 2772891,
    "name": "Lassing",
    "country": "AT",
    "coord": {
      "lon": 14.26667,
      "lat": 47.51667
    }
  },
  {
    "id": 7871736,
    "name": "Lassee",
    "country": "AT",
    "coord": {
      "lon": 16.82222,
      "lat": 48.233189
    }
  },
  {
    "id": 7871936,
    "name": "Lanzenkirchen",
    "country": "AT",
    "coord": {
      "lon": 16.256689,
      "lat": 47.73888
    }
  },
  {
    "id": 2776496,
    "name": "Politischer Bezirk Hermagor",
    "country": "AT",
    "coord": {
      "lon": 13.13333,
      "lat": 46.599998
    }
  },
  {
    "id": 7872756,
    "name": "Kirchbach",
    "country": "AT",
    "coord": {
      "lon": 13.1659,
      "lat": 46.638401
    }
  },
  {
    "id": 2775307,
    "name": "Imst",
    "country": "AT",
    "coord": {
      "lon": 10.73974,
      "lat": 47.245041
    }
  },
  {
    "id": 7872837,
    "name": "Hernstein",
    "country": "AT",
    "coord": {
      "lon": 16.08,
      "lat": 47.913319
    }
  },
  {
    "id": 2776485,
    "name": "Hernstein",
    "country": "AT",
    "coord": {
      "lon": 16.10561,
      "lat": 47.89465
    }
  },
  {
    "id": 2027487,
    "name": "Arkhara",
    "country": "RU",
    "coord": {
      "lon": 130.084198,
      "lat": 49.4212
    }
  },
  {
    "id": 498817,
    "name": "Saint Petersburg",
    "country": "RU",
    "coord": {
      "lon": 30.264168,
      "lat": 59.894444
    }
  },
  {
    "id": 2643743,
    "name": "London",
    "country": "GB",
    "coord": {
      "lon": -0.12574,
      "lat": 51.50853
    }
  },
  {
    "id": 539907,
    "name": "Kudepsta",
    "country": "RU",
    "coord": {
      "lon": 39.896389,
      "lat": 43.494446
    }
  },
  {
    "id": 6217081,
    "name": "Ashburton",
    "country": "NZ",
    "coord": {
      "lon": 171.730103,
      "lat": -43.898338
    }
  },
  {
    "id": 964078,
    "name": "Prince Albert",
    "country": "ZA",
    "coord": {
      "lon": 22.02993,
      "lat": -33.22263
    }
  },
  {
    "id": 939702,
    "name": "Williston",
    "country": "ZA",
    "coord": {
      "lon": 20.91544,
      "lat": -31.340481
    }
  },
  {
    "id": 944024,
    "name": "Victoria West",
    "country": "ZA",
    "coord": {
      "lon": 23.114611,
      "lat": -31.403641
    }
  },
  {
    "id": 988429,
    "name": "Koffiefontein",
    "country": "ZA",
    "coord": {
      "lon": 25.00309,
      "lat": -29.40661
    }
  },
  {
    "id": 1548958,
    "name": "Xiaoshi",
    "country": "CN",
    "coord": {
      "lon": 118.781479,
      "lat": 32.096531
    }
  },
  {
    "id": 6544490,
    "name": "Usera",
    "country": "ES",
    "coord": {
      "lon": -3.70035,
      "lat": 40.38866
    }
  },
  {
    "id": 3090990,
    "name": "Niegowonice",
    "country": "PL",
    "coord": {
      "lon": 19.42263,
      "lat": 50.389091
    }
  },
  {
    "id": 2892051,
    "name": "Kaulsdorf",
    "country": "DE",
    "coord": {
      "lon": 13.58871,
      "lat": 52.517319
    }
  },
  {
    "id": 2652249,
    "name": "Coulsdon",
    "country": "GB",
    "coord": {
      "lon": -0.14088,
      "lat": 51.320019
    }
  },
  {
    "id": 2650228,
    "name": "Edgware",
    "country": "GB",
    "coord": {
      "lon": -0.27539,
      "lat": 51.612801
    }
  },
  {
    "id": 2633975,
    "name": "Wickham",
    "country": "GB",
    "coord": {
      "lon": -1.18815,
      "lat": 50.899239
    }
  },
  {
    "id": 2640331,
    "name": "Pevensey",
    "country": "GB",
    "coord": {
      "lon": 0.33963,
      "lat": 50.81966
    }
  },
  {
    "id": 996409,
    "name": "Himeville",
    "country": "ZA",
    "coord": {
      "lon": 29.513611,
      "lat": -29.74674
    }
  },
  {
    "id": 3116156,
    "name": "Moratalaz",
    "country": "ES",
    "coord": {
      "lon": -3.65,
      "lat": 40.416672
    }
  },
  {
    "id": 6176421,
    "name": "Wasaga Beach",
    "country": "CA",
    "coord": {
      "lon": -80.016373,
      "lat": 44.5168
    }
  },
  {
    "id": 3027857,
    "name": "Cernay",
    "country": "FR",
    "coord": {
      "lon": 7.17699,
      "lat": 47.8097
    }
  },
  {
    "id": 2641290,
    "name": "Northolt",
    "country": "GB",
    "coord": {
      "lon": -0.36778,
      "lat": 51.54855
    }
  },
  {
    "id": 1002108,
    "name": "Germiston",
    "country": "ZA",
    "coord": {
      "lon": 28.176649,
      "lat": -26.23481
    }
  },
  {
    "id": 2508813,
    "name": "Adrar",
    "country": "DZ",
    "coord": {
      "lon": -0.29388,
      "lat": 27.87429
    }
  },
  {
    "id": 2151649,
    "name": "Richmond",
    "country": "AU",
    "coord": {
      "lon": 145.001755,
      "lat": -37.818192
    }
  },
  {
    "id": 2171000,
    "name": "Collingwood",
    "country": "AU",
    "coord": {
      "lon": 144.983337,
      "lat": -37.799999
    }
  },
  {
    "id": 2154855,
    "name": "North Sydney",
    "country": "AU",
    "coord": {
      "lon": 151.207214,
      "lat": -33.840561
    }
  },
  {
    "id": 2166584,
    "name": "Fitzroy",
    "country": "AU",
    "coord": {
      "lon": 144.983337,
      "lat": -37.783329
    }
  },
  {
    "id": 6943577,
    "name": "Fortitude Valley",
    "country": "AU",
    "coord": {
      "lon": 153.034744,
      "lat": -27.45718
    }
  },
  {
    "id": 2065337,
    "name": "Mundaring",
    "country": "AU",
    "coord": {
      "lon": 116.166672,
      "lat": -31.9
    }
  },
  {
    "id": 2176264,
    "name": "Belmont",
    "country": "AU",
    "coord": {
      "lon": 153.116669,
      "lat": -27.5
    }
  },
  {
    "id": 1809104,
    "name": "Haidian",
    "country": "CN",
    "coord": {
      "lon": 116.299171,
      "lat": 39.979172
    }
  },
  {
    "id": 6834870,
    "name": "Haitou",
    "country": "CN",
    "coord": {
      "lon": 110.38295,
      "lat": 21.20347
    }
  },
  {
    "id": 2033115,
    "name": "Zhenzhuquan",
    "country": "CN",
    "coord": {
      "lon": 116.419724,
      "lat": 40.55389
    }
  },
  {
    "id": 2033458,
    "name": "Yanqing",
    "country": "CN",
    "coord": {
      "lon": 115.966667,
      "lat": 40.466671
    }
  },
  {
    "id": 2111401,
    "name": "Onagawa Cho",
    "country": "JP",
    "coord": {
      "lon": 141.449997,
      "lat": 38.438332
    }
  },
  {
    "id": 2991935,
    "name": "Montussan",
    "country": "FR",
    "coord": {
      "lon": -0.42181,
      "lat": 44.880569
    }
  },
  {
    "id": 2743177,
    "name": "Aldeia de Joanes",
    "country": "PT",
    "coord": {
      "lon": -7.51694,
      "lat": 40.13905
    }
  },
  {
    "id": 261807,
    "name": "Igoumenitsa",
    "country": "GR",
    "coord": {
      "lon": 20.26556,
      "lat": 39.503891
    }
  },
  {
    "id": 2634341,
    "name": "City of Westminster",
    "country": "GB",
    "coord": {
      "lon": -0.11667,
      "lat": 51.5
    }
  },
  {
    "id": 2636147,
    "name": "Teddington",
    "country": "GB",
    "coord": {
      "lon": -0.33053,
      "lat": 51.422329
    }
  },
  {
    "id": 2637490,
    "name": "Southall",
    "country": "GB",
    "coord": {
      "lon": -0.3713,
      "lat": 51.508961
    }
  },
  {
    "id": 2637063,
    "name": "Stanmore",
    "country": "GB",
    "coord": {
      "lon": -0.31667,
      "lat": 51.616669
    }
  },
  {
    "id": 2646004,
    "name": "Isleworth",
    "country": "GB",
    "coord": {
      "lon": -0.34246,
      "lat": 51.475182
    }
  },
  {
    "id": 2640275,
    "name": "Pinner",
    "country": "GB",
    "coord": {
      "lon": -0.38216,
      "lat": 51.593842
    }
  },
  {
    "id": 2647972,
    "name": "Greenford",
    "country": "GB",
    "coord": {
      "lon": -0.35508,
      "lat": 51.52866
    }
  },
  {
    "id": 2647550,
    "name": "Hampton",
    "country": "GB",
    "coord": {
      "lon": -0.36684,
      "lat": 51.421051
    }
  },
  {
    "id": 2633655,
    "name": "Woodford Green",
    "country": "GB",
    "coord": {
      "lon": 0.02329,
      "lat": 51.609379
    }
  },
  {
    "id": 3517270,
    "name": "Santa Maria Chimalhuacan",
    "country": "MX",
    "coord": {
      "lon": -98.900002,
      "lat": 19.41667
    }
  },
  {
    "id": 2870310,
    "name": "Moabit",
    "country": "DE",
    "coord": {
      "lon": 13.33903,
      "lat": 52.526348
    }
  },
  {
    "id": 2835411,
    "name": "Schwaigern",
    "country": "DE",
    "coord": {
      "lon": 9.055,
      "lat": 49.14389
    }
  },
  {
    "id": 2914548,
    "name": "Gruibingen",
    "country": "DE",
    "coord": {
      "lon": 9.64389,
      "lat": 48.59483
    }
  },
  {
    "id": 2924770,
    "name": "Friedenau",
    "country": "DE",
    "coord": {
      "lon": 13.32813,
      "lat": 52.471329
    }
  },
  {
    "id": 2951935,
    "name": "Baumschulenweg",
    "country": "DE",
    "coord": {
      "lon": 13.48333,
      "lat": 52.466671
    }
  },
  {
    "id": 2873589,
    "name": "Marienfelde",
    "country": "DE",
    "coord": {
      "lon": 13.36723,
      "lat": 52.418678
    }
  },
  {
    "id": 2948064,
    "name": "Blankenfelde",
    "country": "DE",
    "coord": {
      "lon": 13.39057,
      "lat": 52.618629
    }
  },
  {
    "id": 2896592,
    "name": "Ilfeld",
    "country": "DE",
    "coord": {
      "lon": 10.78333,
      "lat": 51.583328
    }
  },
  {
    "id": 2855373,
    "name": "Partenheim",
    "country": "DE",
    "coord": {
      "lon": 8.08222,
      "lat": 49.883888
    }
  },
  {
    "id": 2892811,
    "name": "Karlshorst",
    "country": "DE",
    "coord": {
      "lon": 13.53185,
      "lat": 52.484192
    }
  },
  {
    "id": 2843350,
    "name": "Rudow",
    "country": "DE",
    "coord": {
      "lon": 13.48529,
      "lat": 52.424068
    }
  },
  {
    "id": 2953541,
    "name": "Bad Blankenburg",
    "country": "DE",
    "coord": {
      "lon": 11.26667,
      "lat": 50.683331
    }
  },
  {
    "id": 2862888,
    "name": "Niederschonhausen",
    "country": "DE",
    "coord": {
      "lon": 13.40272,
      "lat": 52.584831
    }
  },
  {
    "id": 2924577,
    "name": "Friedrichshagen",
    "country": "DE",
    "coord": {
      "lon": 13.62463,
      "lat": 52.45052
    }
  },
  {
    "id": 2838009,
    "name": "Schmargendorf",
    "country": "DE",
    "coord": {
      "lon": 13.29071,
      "lat": 52.47517
    }
  },
  {
    "id": 2844910,
    "name": "Rosenthal",
    "country": "DE",
    "coord": {
      "lon": 13.37774,
      "lat": 52.599758
    }
  },
  {
    "id": 2907298,
    "name": "Heinersdorf",
    "country": "DE",
    "coord": {
      "lon": 13.43757,
      "lat": 52.571732
    }
  },
  {
    "id": 3337408,
    "name": "Gropiusstadt",
    "country": "DE",
    "coord": {
      "lon": 13.46667,
      "lat": 52.424999
    }
  },